{"type": "FeatureCollection", "features": [{"type": "Feature", "properties": {"name": "Zürich Flughafen, Fracht"}, "geometry": {"type": "Point", "coordinates": [8.571438444444446, 47.45227066666667]}}, {"type": "Feature", "properties": {"name": "Zürich Flughafen, Bahnhof"}, "geometry": {"type": "Point", "coordinates": [8.5638868, 47.45023864000001]}}, {"type": "Feature", "properties": {"name": "Thalwil, Zentrum"}, "geometry": {"type": "Point", "coordinates": [8.5642855, 47.29499]}}, {"type": "Feature", "properties": {"name": "Goldbrunnenplatz"}, "geometry": {"type": "Point", "coordinates": [8.513775923076924, 47.370167]}}, {"type": "Feature", "properties": {"name": "Glattbrugg, Unterriet"}, "geometry": {"type": "Point", "coordinates": [8.562140000000001, 47.43791075]}}, {"type": "Feature", "properties": {"name": "Kilchberg ZH, Kirche"}, "geometry": {"type": "Point", "coordinates": [8.541658666666667, 47.317645666666664]}}, {"type": "Feature", "properties": {"name": "Thalwil, Feldstrasse"}, "geometry": {"type": "Point", "coordinates": [8.559671999999999, 47.2903435]}}, {"type": "Feature", "properties": {"name": "Thalwil, Schützenhaus"}, "geometry": {"type": "Point", "coordinates": [8.562008, 47.28771966666667]}}, {"type": "Feature", "properties": {"name": "Schaufelbergerstrasse"}, "geometry": {"type": "Point", "coordinates": [8.501590125, 47.368990999999994]}}, {"type": "Feature", "properties": {"name": "Glattbrugg, Zentrum"}, "geometry": {"type": "Point", "coordinates": [8.5657695, 47.433528499999994]}}, {"type": "Feature", "properties": {"name": "Dübendorf, Meiershofstrasse"}, "geometry": {"type": "Point", "coordinates": [8.613246833333333, 47.39674366666667]}}, {"type": "Feature", "properties": {"name": "Kilchberg ZH, Bahnhof"}, "geometry": {"type": "Point", "coordinates": [8.548133, 47.324515999999996]}}, {"type": "Feature", "properties": {"name": "Triemli"}, "geometry": {"type": "Point", "coordinates": [8.495363555555555, 47.36797977777778]}}, {"type": "Feature", "properties": {"name": "Thalwil, Mühlebachplatz"}, "geometry": {"type": "Point", "coordinates": [8.564888, 47.291278000000005]}}, {"type": "Feature", "properties": {"name": "Kunsthaus"}, "geometry": {"type": "Point", "coordinates": [8.5487793, 47.3705978]}}, {"type": "Feature", "properties": {"name": "Bezirksgebäude"}, "geometry": {"type": "Point", "coordinates": [8.525573999999999, 47.37407225]}}, {"type": "Feature", "properties": {"name": "ETH/Universitätsspital"}, "geometry": {"type": "Point", "coordinates": [8.5481924, 47.3765306]}}, {"type": "Feature", "properties": {"name": "Bucheggplatz"}, "geometry": {"type": "Point", "coordinates": [8.533084, 47.398487384615386]}}, {"type": "Feature", "properties": {"name": "Farbhof"}, "geometry": {"type": "Point", "coordinates": [8.479194642857143, 47.39057757142858]}}, {"type": "Feature", "properties": {"name": "Sternen Oerlikon"}, "geometry": {"type": "Point", "coordinates": [8.546232764705884, 47.410066]}}, {"type": "Feature", "properties": {"name": "Dietikon, Bahnhof"}, "geometry": {"type": "Point", "coordinates": [8.40442275, 47.405786875000004]}}, {"type": "Feature", "properties": {"name": "Im Ebnet"}, "geometry": {"type": "Point", "coordinates": [8.5436945, 47.4316565]}}, {"type": "Feature", "properties": {"name": "Wallisellen, Glatt (Bus)"}, "geometry": {"type": "Point", "coordinates": [8.59563025, 47.409144749999996]}}, {"type": "Feature", "properties": {"name": "Regensdorf, Zentrum"}, "geometry": {"type": "Point", "coordinates": [8.4663035, 47.43133175]}}, {"type": "Feature", "properties": {"name": "Dübendorf, Hoffnung"}, "geometry": {"type": "Point", "coordinates": [8.599868749999999, 47.39601825]}}, {"type": "Feature", "properties": {"name": "Kloten Balsberg, Bahnhof"}, "geometry": {"type": "Point", "coordinates": [8.5684474, 47.44165740000001]}}, {"type": "Feature", "properties": {"name": "Rümlang, Bäuler"}, "geometry": {"type": "Point", "coordinates": [8.55799975, 47.435513]}}, {"type": "Feature", "properties": {"name": "Glattbrugg, Lindberghplatz"}, "geometry": {"type": "Point", "coordinates": [8.5610065, 47.42548875]}}, {"type": "Feature", "properties": {"name": "Wallisellen, Florastrasse"}, "geometry": {"type": "Point", "coordinates": [8.597017, 47.411831750000005]}}, {"type": "Feature", "properties": {"name": "Schürgistrasse"}, "geometry": {"type": "Point", "coordinates": [8.579782999999999, 47.40883766666667]}}, {"type": "Feature", "properties": {"name": "Glattbrugg, Glatthof"}, "geometry": {"type": "Point", "coordinates": [8.5675492, 47.4343312]}}, {"type": "Feature", "properties": {"name": "Kilchberg ZH,Schulhaus Dorfstr"}, "geometry": {"type": "Point", "coordinates": [8.547641333333333, 47.321881]}}, {"type": "Feature", "properties": {"name": "Hölderlinstrasse"}, "geometry": {"type": "Point", "coordinates": [8.5623125, 47.3661665]}}, {"type": "Feature", "properties": {"name": "Kilchberg ZH, Kreuzstrasse"}, "geometry": {"type": "Point", "coordinates": [8.545207750000001, 47.325091]}}, {"type": "Feature", "properties": {"name": "Rümlang, Letten"}, "geometry": {"type": "Point", "coordinates": [8.5348785, 47.43853]}}, {"type": "Feature", "properties": {"name": "Dübendorf, Neugut Süd"}, "geometry": {"type": "Point", "coordinates": [8.6017315, 47.4027375]}}, {"type": "Feature", "properties": {"name": "Volketswil, Volkiland Chliriet"}, "geometry": {"type": "Point", "coordinates": [8.667569499999999, 47.38192]}}, {"type": "Feature", "properties": {"name": "Leutschenbach"}, "geometry": {"type": "Point", "coordinates": [8.551170272727273, 47.41432990909091]}}, {"type": "Feature", "properties": {"name": "Dübendorf, City Center"}, "geometry": {"type": "Point", "coordinates": [8.616536, 47.3970015]}}, {"type": "Feature", "properties": {"name": "D'dorf, Sportanl Heerenschürli"}, "geometry": {"type": "Point", "coordinates": [8.595668, 47.4044935]}}, {"type": "Feature", "properties": {"name": "Glattbrugg, Bahnhof"}, "geometry": {"type": "Point", "coordinates": [8.558891777777779, 47.43105766666666]}}, {"type": "Feature", "properties": {"name": "Heizenholz"}, "geometry": {"type": "Point", "coordinates": [8.483923, 47.41220025]}}, {"type": "Feature", "properties": {"name": "Dübendorf, Sonnental"}, "geometry": {"type": "Point", "coordinates": [8.603345833333334, 47.39568283333333]}}, {"type": "Feature", "properties": {"name": "Dübendorf, Breitibach"}, "geometry": {"type": "Point", "coordinates": [8.60933, 47.39600825]}}, {"type": "Feature", "properties": {"name": "Neubühl"}, "geometry": {"type": "Point", "coordinates": [8.534718, 47.332848]}}, {"type": "Feature", "properties": {"name": "Bahnhof Leimbach"}, "geometry": {"type": "Point", "coordinates": [8.518651, 47.3333145]}}, {"type": "Feature", "properties": {"name": "Schwamendingerplatz"}, "geometry": {"type": "Point", "coordinates": [8.571379555555556, 47.40471855555556]}}, {"type": "Feature", "properties": {"name": "Stauffacher"}, "geometry": {"type": "Point", "coordinates": [8.52931225, 47.3730545]}}, {"type": "Feature", "properties": {"name": "Kienastenwies"}, "geometry": {"type": "Point", "coordinates": [8.600873, 47.35517900000001]}}, {"type": "Feature", "properties": {"name": "Milchbuck"}, "geometry": {"type": "Point", "coordinates": [8.541750200000001, 47.39777813333333]}}, {"type": "Feature", "properties": {"name": "Kilchberg ZH, Lindt & Sprüngli"}, "geometry": {"type": "Point", "coordinates": [8.5517302, 47.3186094]}}, {"type": "Feature", "properties": {"name": "Adliswil, Ahornweg"}, "geometry": {"type": "Point", "coordinates": [8.5342135, 47.318928]}}, {"type": "Feature", "properties": {"name": "Morgental"}, "geometry": {"type": "Point", "coordinates": [8.529884538461541, 47.3439936923077]}}, {"type": "Feature", "properties": {"name": "Unterengstringen, Sennenbüel N"}, "geometry": {"type": "Point", "coordinates": [8.449755, 47.413856]}}, {"type": "Feature", "properties": {"name": "Kilchberg ZH, Stockengut"}, "geometry": {"type": "Point", "coordinates": [8.540386999999999, 47.324168]}}, {"type": "Feature", "properties": {"name": "Urdorf, Feldegg"}, "geometry": {"type": "Point", "coordinates": [8.428037, 47.392086000000006]}}, {"type": "Feature", "properties": {"name": "Kilchberg ZH, Bächlerstrasse"}, "geometry": {"type": "Point", "coordinates": [8.539276000000001, 47.3290085]}}, {"type": "Feature", "properties": {"name": "Urdorf Weihermatt, Bahnhof"}, "geometry": {"type": "Point", "coordinates": [8.4298575, 47.3801275]}}, {"type": "Feature", "properties": {"name": "Lägernstrasse"}, "geometry": {"type": "Point", "coordinates": [8.532181, 47.3959415]}}, {"type": "Feature", "properties": {"name": "Kilchberg ZH, Bendlikon"}, "geometry": {"type": "Point", "coordinates": [8.550386, 47.322173500000005]}}, {"type": "Feature", "properties": {"name": "Radiostudio"}, "geometry": {"type": "Point", "coordinates": [8.535153333333332, 47.402103333333336]}}, {"type": "Feature", "properties": {"name": "Kilchberg ZH, Gottlieb-Binder"}, "geometry": {"type": "Point", "coordinates": [8.5426555, 47.322886499999996]}}, {"type": "Feature", "properties": {"name": "Paradeplatz"}, "geometry": {"type": "Point", "coordinates": [8.538576875, 47.3695666875]}}, {"type": "Feature", "properties": {"name": "Kilchberg ZH, Mythenstrasse"}, "geometry": {"type": "Point", "coordinates": [8.540355, 47.3264795]}}, {"type": "Feature", "properties": {"name": "Römerhof"}, "geometry": {"type": "Point", "coordinates": [8.560239222222222, 47.36812088888889]}}, {"type": "Feature", "properties": {"name": "Hirschwiesenstrasse"}, "geometry": {"type": "Point", "coordinates": [8.5434698, 47.4002522]}}, {"type": "Feature", "properties": {"name": "Kilchberg ZH, Schwelle"}, "geometry": {"type": "Point", "coordinates": [8.545269600000001, 47.321936]}}, {"type": "Feature", "properties": {"name": "Werd"}, "geometry": {"type": "Point", "coordinates": [8.52685075, 47.372564749999995]}}, {"type": "Feature", "properties": {"name": "Albisriederplatz"}, "geometry": {"type": "Point", "coordinates": [8.5103983, 47.37889475000001]}}, {"type": "Feature", "properties": {"name": "Adliswil, Hofackerstrasse"}, "geometry": {"type": "Point", "coordinates": [8.53585925, 47.31468675]}}, {"type": "Feature", "properties": {"name": "Schlieren, Zentrum"}, "geometry": {"type": "Point", "coordinates": [8.446266999999999, 47.39754383333334]}}, {"type": "Feature", "properties": {"name": "Kilchberg ZH, Schlimbergstr."}, "geometry": {"type": "Point", "coordinates": [8.542950999999999, 47.324674]}}, {"type": "Feature", "properties": {"name": "Schaffhauserplatz"}, "geometry": {"type": "Point", "coordinates": [8.538576846153846, 47.39179015384615]}}, {"type": "Feature", "properties": {"name": "Schlieren, Bahnhof"}, "geometry": {"type": "Point", "coordinates": [8.448523, 47.399634999999996]}}, {"type": "Feature", "properties": {"name": "Bahnhofplatz/HB"}, "geometry": {"type": "Point", "coordinates": [8.539226333333332, 47.37718533333334]}}, {"type": "Feature", "properties": {"name": "Bahnhofquai/HB"}, "geometry": {"type": "Point", "coordinates": [8.541268363636364, 47.377857909090906]}}, {"type": "Feature", "properties": {"name": "Universität Irchel"}, "geometry": {"type": "Point", "coordinates": [8.54500509090909, 47.39616027272727]}}, {"type": "Feature", "properties": {"name": "Rüschlikon, Loorain"}, "geometry": {"type": "Point", "coordinates": [8.5422335, 47.307438749999996]}}, {"type": "Feature", "properties": {"name": "Rüschlikon, Eggrain"}, "geometry": {"type": "Point", "coordinates": [8.544196, 47.3046475]}}, {"type": "Feature", "properties": {"name": "Bahnhof Wiedikon"}, "geometry": {"type": "Point", "coordinates": [8.524019444444443, 47.37151577777777]}}, {"type": "Feature", "properties": {"name": "Bellevue"}, "geometry": {"type": "Point", "coordinates": [8.545523888888887, 47.36699481481481]}}, {"type": "Feature", "properties": {"name": "Frankental"}, "geometry": {"type": "Point", "coordinates": [8.481483666666668, 47.4056225]}}, {"type": "Feature", "properties": {"name": "Escher-Wyss-Platz"}, "geometry": {"type": "Point", "coordinates": [8.522402103448275, 47.39049782758621]}}, {"type": "Feature", "properties": {"name": "Altried"}, "geometry": {"type": "Point", "coordinates": [8.591588400000001, 47.405756200000006]}}, {"type": "Feature", "properties": {"name": "Wallisellen, Herti"}, "geometry": {"type": "Point", "coordinates": [8.578845000000001, 47.41655725]}}, {"type": "Feature", "properties": {"name": "Seebach"}, "geometry": {"type": "Point", "coordinates": [8.549842142857141, 47.42203428571428]}}, {"type": "Feature", "properties": {"name": "Hungerbergstrasse"}, "geometry": {"type": "Point", "coordinates": [8.50136575, 47.421086499999994]}}, {"type": "Feature", "properties": {"name": "Thalwil, Seehaldenstrasse"}, "geometry": {"type": "Point", "coordinates": [8.553990500000001, 47.297775]}}, {"type": "Feature", "properties": {"name": "Adliswil, Bahnhof"}, "geometry": {"type": "Point", "coordinates": [8.524889900000002, 47.3116208]}}, {"type": "Feature", "properties": {"name": "Ausserdorfstrasse"}, "geometry": {"type": "Point", "coordinates": [8.548585, 47.4245665]}}, {"type": "Feature", "properties": {"name": "Schwerzenbach ZH, Bahnhof"}, "geometry": {"type": "Point", "coordinates": [8.6594695, 47.384105250000005]}}, {"type": "Feature", "properties": {"name": "Regensdorf, Chrüzächer"}, "geometry": {"type": "Point", "coordinates": [8.473706250000001, 47.42672575]}}, {"type": "Feature", "properties": {"name": "Wallisellen, Bahnhof"}, "geometry": {"type": "Point", "coordinates": [8.593175888888887, 47.412273222222225]}}, {"type": "Feature", "properties": {"name": "Volketswil, Hofwisen"}, "geometry": {"type": "Point", "coordinates": [8.673008, 47.3811335]}}, {"type": "Feature", "properties": {"name": "Glattbrugg, Frohbühlstrasse"}, "geometry": {"type": "Point", "coordinates": [8.5575175, 47.428197999999995]}}, {"type": "Feature", "properties": {"name": "Glattbrugg, Mode Center TMC"}, "geometry": {"type": "Point", "coordinates": [8.559060500000001, 47.42342]}}, {"type": "Feature", "properties": {"name": "Dübendorf, Lindenplatz"}, "geometry": {"type": "Point", "coordinates": [8.6204305, 47.39863275]}}, {"type": "Feature", "properties": {"name": "Urdorf, Rainweg"}, "geometry": {"type": "Point", "coordinates": [8.42535, 47.3895135]}}, {"type": "Feature", "properties": {"name": "Dietikon, Pestalozzi"}, "geometry": {"type": "Point", "coordinates": [8.39939775, 47.414232250000005]}}, {"type": "Feature", "properties": {"name": "Thalwil, Post"}, "geometry": {"type": "Point", "coordinates": [8.562697, 47.296795]}}, {"type": "Feature", "properties": {"name": "Garage Adliswil"}, "geometry": {"type": "Point", "coordinates": [8.526698, 47.312684000000004]}}, {"type": "Feature", "properties": {"name": "Mittelleimbach"}, "geometry": {"type": "Point", "coordinates": [8.5142915, 47.323158500000005]}}, {"type": "Feature", "properties": {"name": "Rüschlikon, Park im Grüene"}, "geometry": {"type": "Point", "coordinates": [8.54955525, 47.300849250000006]}}, {"type": "Feature", "properties": {"name": "Rüschlikon, Moosstrasse"}, "geometry": {"type": "Point", "coordinates": [8.545130499999999, 47.302533499999996]}}, {"type": "Feature", "properties": {"name": "Triemlispital"}, "geometry": {"type": "Point", "coordinates": [8.499516999999999, 47.365523499999995]}}, {"type": "Feature", "properties": {"name": "Rümlang, Hörnlistrasse"}, "geometry": {"type": "Point", "coordinates": [8.531277833333332, 47.445436]}}, {"type": "Feature", "properties": {"name": "Glattbrugg, Post"}, "geometry": {"type": "Point", "coordinates": [8.56101, 47.4303905]}}, {"type": "Feature", "properties": {"name": "Birch-/Glatttalstrasse"}, "geometry": {"type": "Point", "coordinates": [8.5461435, 47.4274365]}}, {"type": "Feature", "properties": {"name": "Rümlang, Oberdorf"}, "geometry": {"type": "Point", "coordinates": [8.530235000000001, 47.451958499999996]}}, {"type": "Feature", "properties": {"name": "Gessnerallee"}, "geometry": {"type": "Point", "coordinates": [8.536893000000001, 47.3769492]}}, {"type": "Feature", "properties": {"name": "Bahnhof Oerlikon"}, "geometry": {"type": "Point", "coordinates": [8.5449664375, 47.41127406249999]}}, {"type": "Feature", "properties": {"name": "Riedhofstrasse"}, "geometry": {"type": "Point", "coordinates": [8.479417999999999, 47.409867500000004]}}, {"type": "Feature", "properties": {"name": "Zehntenhausplatz"}, "geometry": {"type": "Point", "coordinates": [8.5063952, 47.41923379999999]}}, {"type": "Feature", "properties": {"name": "Aubrücke"}, "geometry": {"type": "Point", "coordinates": [8.5722905, 47.4101225]}}, {"type": "Feature", "properties": {"name": "Rümlang, Gemeindehaus"}, "geometry": {"type": "Point", "coordinates": [8.5301896, 47.4492544]}}, {"type": "Feature", "properties": {"name": "Sihlcity"}, "geometry": {"type": "Point", "coordinates": [8.523036000000001, 47.358307]}}, {"type": "Feature", "properties": {"name": "Bahnhof Enge/Bederstr."}, "geometry": {"type": "Point", "coordinates": [8.5290938, 47.364143600000006]}}, {"type": "Feature", "properties": {"name": "Saalsporthalle"}, "geometry": {"type": "Point", "coordinates": [8.520727599999999, 47.3576956]}}, {"type": "Feature", "properties": {"name": "Adliswil, Krone"}, "geometry": {"type": "Point", "coordinates": [8.528467749999999, 47.31335725000001]}}, {"type": "Feature", "properties": {"name": "Felsenrainstrasse"}, "geometry": {"type": "Point", "coordinates": [8.5454478, 47.4166832]}}, {"type": "Feature", "properties": {"name": "Bahnhof Affoltern"}, "geometry": {"type": "Point", "coordinates": [8.507770375000002, 47.421259750000004]}}, {"type": "Feature", "properties": {"name": "Dübendorf, Bahnhof Nord"}, "geometry": {"type": "Point", "coordinates": [8.624164333333333, 47.400565]}}, {"type": "Feature", "properties": {"name": "Messe/Hallenstadion"}, "geometry": {"type": "Point", "coordinates": [8.550750699999998, 47.410865799999996]}}, {"type": "Feature", "properties": {"name": "Bahnhof Oerlikon Nord"}, "geometry": {"type": "Point", "coordinates": [8.54369, 47.41259333333334]}}, {"type": "Feature", "properties": {"name": "Bahnhof Enge"}, "geometry": {"type": "Point", "coordinates": [8.531673714285715, 47.364180285714276]}}, {"type": "Feature", "properties": {"name": "Bahnhofstrasse/HB"}, "geometry": {"type": "Point", "coordinates": [8.539407857142857, 47.375582142857134]}}, {"type": "Feature", "properties": {"name": "Kilchberg ZH, Schoorenstrasse"}, "geometry": {"type": "Point", "coordinates": [8.549485, 47.317311]}}, {"type": "Feature", "properties": {"name": "Klusplatz"}, "geometry": {"type": "Point", "coordinates": [8.566488714285715, 47.36393449999999]}}, {"type": "Feature", "properties": {"name": "Zürich,Kalkbreite/Bhf.Wiedikon"}, "geometry": {"type": "Point", "coordinates": [8.520951333333334, 47.374308133333344]}}, {"type": "Feature", "properties": {"name": "Manegg"}, "geometry": {"type": "Point", "coordinates": [8.519904666666667, 47.33705966666667]}}, {"type": "Feature", "properties": {"name": "Heuried"}, "geometry": {"type": "Point", "coordinates": [8.506121833333333, 47.369301166666666]}}, {"type": "Feature", "properties": {"name": "Kilchberg ZH, Spital"}, "geometry": {"type": "Point", "coordinates": [8.535233, 47.32186]}}, {"type": "Feature", "properties": {"name": "Kilchberg ZH, Altersheim"}, "geometry": {"type": "Point", "coordinates": [8.540774500000001, 47.319886499999996]}}, {"type": "Feature", "properties": {"name": "Ettenfeld"}, "geometry": {"type": "Point", "coordinates": [8.553756, 47.425473]}}, {"type": "Feature", "properties": {"name": "Bahnhof Oerlikon Ost"}, "geometry": {"type": "Point", "coordinates": [8.546194230769231, 47.413624846153844]}}, {"type": "Feature", "properties": {"name": "Wallisellen, Belair"}, "geometry": {"type": "Point", "coordinates": [8.584798166666666, 47.41347133333334]}}, {"type": "Feature", "properties": {"name": "Fernsehstudio"}, "geometry": {"type": "Point", "coordinates": [8.561638, 47.41814983333333]}}, {"type": "Feature", "properties": {"name": "Glattpark"}, "geometry": {"type": "Point", "coordinates": [8.557043166666666, 47.42064383333334]}}, {"type": "Feature", "properties": {"name": "Seebacherplatz"}, "geometry": {"type": "Point", "coordinates": [8.547969599999998, 47.4199359]}}, {"type": "Feature", "properties": {"name": "Central"}, "geometry": {"type": "Point", "coordinates": [8.543788913043478, 47.376747521739134]}}, {"type": "Feature", "properties": {"name": "Opfikon, Schulstrasse"}, "geometry": {"type": "Point", "coordinates": [8.573732666666666, 47.430848]}}, {"type": "Feature", "properties": {"name": "Dietikon, Stadthaus"}, "geometry": {"type": "Point", "coordinates": [8.400681624999999, 47.402926125]}}, {"type": "Feature", "properties": {"name": "Schlieren, Nassacker"}, "geometry": {"type": "Point", "coordinates": [8.441484, 47.3948435]}}, {"type": "Feature", "properties": {"name": "Dübendorf, Flugplatz"}, "geometry": {"type": "Point", "coordinates": [8.627550666666666, 47.402497000000004]}}, {"type": "Feature", "properties": {"name": "Bergdietikon, Vorbühl"}, "geometry": {"type": "Point", "coordinates": [8.385158, 47.389553500000005]}}, {"type": "Feature", "properties": {"name": "Geroldswil, Grindlen"}, "geometry": {"type": "Point", "coordinates": [8.4153245, 47.418116999999995]}}, {"type": "Feature", "properties": {"name": "Zollikon, Garage G.-Maurer-Str"}, "geometry": {"type": "Point", "coordinates": [8.5735685, 47.343886999999995]}}, {"type": "Feature", "properties": {"name": "Spreitenbach, Breiti"}, "geometry": {"type": "Point", "coordinates": [8.359203, 47.4297695]}}, {"type": "Feature", "properties": {"name": "Spreitenbach, Furttalstrasse"}, "geometry": {"type": "Point", "coordinates": [8.364649499999999, 47.425487000000004]}}, {"type": "Feature", "properties": {"name": "Spreitenbach, Interio"}, "geometry": {"type": "Point", "coordinates": [8.364616, 47.426994]}}, {"type": "Feature", "properties": {"name": "Unterengstringen, Aegelsee"}, "geometry": {"type": "Point", "coordinates": [8.445820000000001, 47.4150535]}}, {"type": "Feature", "properties": {"name": "Dietikon, Vorstadt"}, "geometry": {"type": "Point", "coordinates": [8.397699666666666, 47.409119000000004]}}, {"type": "Feature", "properties": {"name": "Schlieren, Wagonsfabrik"}, "geometry": {"type": "Point", "coordinates": [8.4542098, 47.398438000000006]}}, {"type": "Feature", "properties": {"name": "Oetwil an der Limmat, Post"}, "geometry": {"type": "Point", "coordinates": [8.393790500000001, 47.428427875]}}, {"type": "Feature", "properties": {"name": "Dietikon, Rapidplatz"}, "geometry": {"type": "Point", "coordinates": [8.404582600000001, 47.411005599999996]}}, {"type": "Feature", "properties": {"name": "Röslistrasse"}, "geometry": {"type": "Point", "coordinates": [8.5405145, 47.388653]}}, {"type": "Feature", "properties": {"name": "Depot 2 Wollishofen"}, "geometry": {"type": "Point", "coordinates": [8.531099000000001, 47.337396]}}, {"type": "Feature", "properties": {"name": "Dübendorf, Zelglistrasse"}, "geometry": {"type": "Point", "coordinates": [8.617432333333333, 47.39389933333334]}}, {"type": "Feature", "properties": {"name": "Weiningen ZH, Ausserdorf"}, "geometry": {"type": "Point", "coordinates": [8.439938666666668, 47.417836666666666]}}, {"type": "Feature", "properties": {"name": "Geroldswil, Schweizäcker"}, "geometry": {"type": "Point", "coordinates": [8.404225666666667, 47.423228333333334]}}, {"type": "Feature", "properties": {"name": "Schlieren, Bahnhof Nord"}, "geometry": {"type": "Point", "coordinates": [8.4485555, 47.40086649999999]}}, {"type": "Feature", "properties": {"name": "Schlieren, Reitmen"}, "geometry": {"type": "Point", "coordinates": [8.4328755, 47.397090500000004]}}, {"type": "Feature", "properties": {"name": "Geroldswil, Zentrum"}, "geometry": {"type": "Point", "coordinates": [8.409592166666668, 47.421477]}}, {"type": "Feature", "properties": {"name": "Rennweg"}, "geometry": {"type": "Point", "coordinates": [8.53826075, 47.37308925]}}, {"type": "Feature", "properties": {"name": "Oberengstringen, Zentrum"}, "geometry": {"type": "Point", "coordinates": [8.462644333333333, 47.40925566666667]}}, {"type": "Feature", "properties": {"name": "Dietikon, Schäflibach"}, "geometry": {"type": "Point", "coordinates": [8.411125333333333, 47.39997533333334]}}, {"type": "Feature", "properties": {"name": "Dietikon, Hofacker"}, "geometry": {"type": "Point", "coordinates": [8.411511, 47.398329000000004]}}, {"type": "Feature", "properties": {"name": "Dübendorf, Grüzenstrasse"}, "geometry": {"type": "Point", "coordinates": [8.617195500000001, 47.391476499999996]}}, {"type": "Feature", "properties": {"name": "Dietikon, Sommerau"}, "geometry": {"type": "Point", "coordinates": [8.40503925, 47.4025235]}}, {"type": "Feature", "properties": {"name": "Schlieren, Zentrum/Bahnhof"}, "geometry": {"type": "Point", "coordinates": [8.4479315, 47.3980496]}}, {"type": "Feature", "properties": {"name": "Urdorf, Schlierenstrasse"}, "geometry": {"type": "Point", "coordinates": [8.423314000000001, 47.391159]}}, {"type": "Feature", "properties": {"name": "Guggachstrasse"}, "geometry": {"type": "Point", "coordinates": [8.54017, 47.3957225]}}, {"type": "Feature", "properties": {"name": "Schörlistrasse"}, "geometry": {"type": "Point", "coordinates": [8.564274666666668, 47.406253166666666]}}, {"type": "Feature", "properties": {"name": "Sonneggstrasse"}, "geometry": {"type": "Point", "coordinates": [8.543447, 47.3830466]}}, {"type": "Feature", "properties": {"name": "Dietikon, Gjuchstrasse"}, "geometry": {"type": "Point", "coordinates": [8.393744, 47.408309]}}, {"type": "Feature", "properties": {"name": "Schlieren, Heimeliweg"}, "geometry": {"type": "Point", "coordinates": [8.437836999999998, 47.3946055]}}, {"type": "Feature", "properties": {"name": "Glattwiesen"}, "geometry": {"type": "Point", "coordinates": [8.581684, 47.401588]}}, {"type": "Feature", "properties": {"name": "Dübendorf, Kirche Wil"}, "geometry": {"type": "Point", "coordinates": [8.618492999999999, 47.38938483333334]}}, {"type": "Feature", "properties": {"name": "Dietikon, Kirchplatz"}, "geometry": {"type": "Point", "coordinates": [8.40288, 47.405281]}}, {"type": "Feature", "properties": {"name": "Dietikon, Stadthalle Ost"}, "geometry": {"type": "Point", "coordinates": [8.390272, 47.405567]}}, {"type": "Feature", "properties": {"name": "Dietikon, Silbern"}, "geometry": {"type": "Point", "coordinates": [8.392943, 47.418381000000004]}}, {"type": "Feature", "properties": {"name": "Dietikon, Bahnhofstrasse"}, "geometry": {"type": "Point", "coordinates": [8.403789999999999, 47.404303999999996]}}, {"type": "Feature", "properties": {"name": "Dietikon, Birmensdorferstrasse"}, "geometry": {"type": "Point", "coordinates": [8.41733, 47.39781233333334]}}, {"type": "Feature", "properties": {"name": "Schmiede Wiedikon"}, "geometry": {"type": "Point", "coordinates": [8.519147363636362, 47.369997363636365]}}, {"type": "Feature", "properties": {"name": "Bergdietikon, Rietwies"}, "geometry": {"type": "Point", "coordinates": [8.39052275, 47.393288999999996]}}, {"type": "Feature", "properties": {"name": "Bergdietikon, Baltenschwil"}, "geometry": {"type": "Point", "coordinates": [8.3925245, 47.393247833333334]}}, {"type": "Feature", "properties": {"name": "Wallisellen, Neugut"}, "geometry": {"type": "Point", "coordinates": [8.604261000000001, 47.4048215]}}, {"type": "Feature", "properties": {"name": "Dübendorf, Giessen"}, "geometry": {"type": "Point", "coordinates": [8.60775925, 47.40211875]}}, {"type": "Feature", "properties": {"name": "Depot 7 Irchel"}, "geometry": {"type": "Point", "coordinates": [8.544126333333333, 47.39527366666667]}}, {"type": "Feature", "properties": {"name": "Dübendorf, Ringwiesen"}, "geometry": {"type": "Point", "coordinates": [8.6042175, 47.39738299999999]}}, {"type": "Feature", "properties": {"name": "Auzelg"}, "geometry": {"type": "Point", "coordinates": [8.56867325, 47.416776125000005]}}, {"type": "Feature", "properties": {"name": "Kreuzplatz"}, "geometry": {"type": "Point", "coordinates": [8.554009999999998, 47.365083600000006]}}, {"type": "Feature", "properties": {"name": "Laubiweg"}, "geometry": {"type": "Point", "coordinates": [8.5363535, 47.394971]}}, {"type": "Feature", "properties": {"name": "Beckenhof"}, "geometry": {"type": "Point", "coordinates": [8.540111, 47.384649249999995]}}, {"type": "Feature", "properties": {"name": "Kronenstrasse"}, "geometry": {"type": "Point", "coordinates": [8.539340000000001, 47.3879646]}}, {"type": "Feature", "properties": {"name": "Stampfenbachplatz"}, "geometry": {"type": "Point", "coordinates": [8.5426936, 47.3802718]}}, {"type": "Feature", "properties": {"name": "Regensbergbrücke"}, "geometry": {"type": "Point", "coordinates": [8.538691333333333, 47.409191]}}, {"type": "Feature", "properties": {"name": "Bad Allenmoos"}, "geometry": {"type": "Point", "coordinates": [8.537215333333334, 47.406385500000006]}}, {"type": "Feature", "properties": {"name": "Rehalp"}, "geometry": {"type": "Point", "coordinates": [8.583212857142856, 47.35087814285714]}}, {"type": "Feature", "properties": {"name": "Waldburg, Station"}, "geometry": {"type": "Point", "coordinates": [8.593176666666666, 47.345345333333334]}}, {"type": "Feature", "properties": {"name": "Zumikon, Waltikon"}, "geometry": {"type": "Point", "coordinates": [8.6180695, 47.336101]}}, {"type": "Feature", "properties": {"name": "Zollikerberg, Station"}, "geometry": {"type": "Point", "coordinates": [8.6022426, 47.345885200000005]}}, {"type": "Feature", "properties": {"name": "Opernhaus"}, "geometry": {"type": "Point", "coordinates": [8.547525333333333, 47.36518933333334]}}, {"type": "Feature", "properties": {"name": "Wetlistrasse"}, "geometry": {"type": "Point", "coordinates": [8.568394000000001, 47.36013616666667]}}, {"type": "Feature", "properties": {"name": "Bahnhof Stadelhofen"}, "geometry": {"type": "Point", "coordinates": [8.5480495, 47.366221124999996]}}, {"type": "Feature", "properties": {"name": "Hegibachplatz"}, "geometry": {"type": "Point", "coordinates": [8.5603922, 47.36175006666667]}}, {"type": "Feature", "properties": {"name": "Zollikerb., Langägerten/Spital"}, "geometry": {"type": "Point", "coordinates": [8.597997249999999, 47.34652975]}}, {"type": "Feature", "properties": {"name": "Scheuren, Station"}, "geometry": {"type": "Point", "coordinates": [8.659959400000002, 47.3224055]}}, {"type": "Feature", "properties": {"name": "Balgrist"}, "geometry": {"type": "Point", "coordinates": [8.5750835, 47.35441275]}}, {"type": "Feature", "properties": {"name": "Sunnau"}, "geometry": {"type": "Point", "coordinates": [8.52975, 47.32670533333334]}}, {"type": "Feature", "properties": {"name": "Dangelstrasse"}, "geometry": {"type": "Point", "coordinates": [8.530219666666666, 47.334812666666664]}}, {"type": "Feature", "properties": {"name": "Adliswil, Tiefacker"}, "geometry": {"type": "Point", "coordinates": [8.529945999999999, 47.316607]}}, {"type": "Feature", "properties": {"name": "Adliswil, Moos"}, "geometry": {"type": "Point", "coordinates": [8.531173, 47.3251635]}}, {"type": "Feature", "properties": {"name": "Adliswil, Eichenweg"}, "geometry": {"type": "Point", "coordinates": [8.533660999999999, 47.320053]}}, {"type": "Feature", "properties": {"name": "Garage 6 Hardau"}, "geometry": {"type": "Point", "coordinates": [8.507098333333333, 47.382340666666664]}}, {"type": "Feature", "properties": {"name": "Wollishofen"}, "geometry": {"type": "Point", "coordinates": [8.530731181818181, 47.338297090909094]}}, {"type": "Feature", "properties": {"name": "Widmerstrasse"}, "geometry": {"type": "Point", "coordinates": [8.5329675, 47.3368495]}}, {"type": "Feature", "properties": {"name": "Adliswil, Badstrasse"}, "geometry": {"type": "Point", "coordinates": [8.533608666666668, 47.31365533333334]}}, {"type": "Feature", "properties": {"name": "Adliswil, Grüt"}, "geometry": {"type": "Point", "coordinates": [8.5289445, 47.3224085]}}, {"type": "Feature", "properties": {"name": "Sihlcity Nord"}, "geometry": {"type": "Point", "coordinates": [8.522812, 47.360097874999994]}}, {"type": "Feature", "properties": {"name": "Wallisellen, Glatt (Tram)"}, "geometry": {"type": "Point", "coordinates": [8.598073, 47.4093405]}}, {"type": "Feature", "properties": {"name": "Geeringstrasse"}, "geometry": {"type": "Point", "coordinates": [8.480599666666668, 47.41428966666666]}}, {"type": "Feature", "properties": {"name": "Kappeli"}, "geometry": {"type": "Point", "coordinates": [8.494749714285714, 47.384901285714285]}}, {"type": "Feature", "properties": {"name": "Letzigrund"}, "geometry": {"type": "Point", "coordinates": [8.503954400000001, 47.381103800000005]}}, {"type": "Feature", "properties": {"name": "Kernstrasse"}, "geometry": {"type": "Point", "coordinates": [8.524394000000001, 47.374624499999996]}}, {"type": "Feature", "properties": {"name": "Lochergut"}, "geometry": {"type": "Point", "coordinates": [8.517562, 47.375442]}}, {"type": "Feature", "properties": {"name": "Zypressenstrasse"}, "geometry": {"type": "Point", "coordinates": [8.513876499999999, 47.37671625]}}, {"type": "Feature", "properties": {"name": "Depot 4 Elisabethenstr"}, "geometry": {"type": "Point", "coordinates": [8.521626000000001, 47.373326500000005]}}, {"type": "Feature", "properties": {"name": "Freihofstrasse"}, "geometry": {"type": "Point", "coordinates": [8.49961625, 47.38315075]}}, {"type": "Feature", "properties": {"name": "Löwenplatz"}, "geometry": {"type": "Point", "coordinates": [8.537338799999999, 47.376098199999994]}}, {"type": "Feature", "properties": {"name": "Oerlikerhus"}, "geometry": {"type": "Point", "coordinates": [8.553935, 47.41753557142857]}}, {"type": "Feature", "properties": {"name": "Haldenbach"}, "geometry": {"type": "Point", "coordinates": [8.548127166666667, 47.380234333333334]}}, {"type": "Feature", "properties": {"name": "Seilbahn Rigiblick"}, "geometry": {"type": "Point", "coordinates": [8.5483045, 47.3859955]}}, {"type": "Feature", "properties": {"name": "Sihlpost / HB"}, "geometry": {"type": "Point", "coordinates": [8.5343504, 47.376291]}}, {"type": "Feature", "properties": {"name": "Letzistrasse"}, "geometry": {"type": "Point", "coordinates": [8.5454886, 47.3908046]}}, {"type": "Feature", "properties": {"name": "Signaustrasse"}, "geometry": {"type": "Point", "coordinates": [8.5570046, 47.362870799999996]}}, {"type": "Feature", "properties": {"name": "Berninaplatz"}, "geometry": {"type": "Point", "coordinates": [8.547780166666666, 47.40354266666666]}}, {"type": "Feature", "properties": {"name": "Limmatplatz"}, "geometry": {"type": "Point", "coordinates": [8.531625, 47.38463022222222]}}, {"type": "Feature", "properties": {"name": "Sihlquai/HB"}, "geometry": {"type": "Point", "coordinates": [8.5373495, 47.38014475]}}, {"type": "Feature", "properties": {"name": "Dammweg"}, "geometry": {"type": "Point", "coordinates": [8.526254, 47.388992800000004]}}, {"type": "Feature", "properties": {"name": "Kinkelstrasse"}, "geometry": {"type": "Point", "coordinates": [8.546347, 47.388897]}}, {"type": "Feature", "properties": {"name": "Winkelriedstrasse"}, "geometry": {"type": "Point", "coordinates": [8.548182, 47.3831735]}}, {"type": "Feature", "properties": {"name": "Museum für Gestaltung"}, "geometry": {"type": "Point", "coordinates": [8.53539925, 47.38240925]}}, {"type": "Feature", "properties": {"name": "Burgwies"}, "geometry": {"type": "Point", "coordinates": [8.5717045, 47.35807025]}}, {"type": "Feature", "properties": {"name": "Quellenstrasse"}, "geometry": {"type": "Point", "coordinates": [8.528889333333334, 47.38669133333334]}}, {"type": "Feature", "properties": {"name": "Depot 5 Hard"}, "geometry": {"type": "Point", "coordinates": [8.521342333333335, 47.39152033333334]}}, {"type": "Feature", "properties": {"name": "Depot 8 Oerlikon"}, "geometry": {"type": "Point", "coordinates": [8.548480000000001, 47.409596500000006]}}, {"type": "Feature", "properties": {"name": "Garage 9 Hagenholz"}, "geometry": {"type": "Point", "coordinates": [8.557824, 47.415031]}}, {"type": "Feature", "properties": {"name": "Haldenegg"}, "geometry": {"type": "Point", "coordinates": [8.544421333333334, 47.379788166666664]}}, {"type": "Feature", "properties": {"name": "Hedwigsteig"}, "geometry": {"type": "Point", "coordinates": [8.56416475, 47.36044749999999]}}, {"type": "Feature", "properties": {"name": "Friedhof Enzenbühl"}, "geometry": {"type": "Point", "coordinates": [8.580113833333334, 47.351045166666665]}}, {"type": "Feature", "properties": {"name": "Salersteig"}, "geometry": {"type": "Point", "coordinates": [8.548362333333333, 47.406054833333336]}}, {"type": "Feature", "properties": {"name": "Langmauerstrasse"}, "geometry": {"type": "Point", "coordinates": [8.54495575, 47.393618499999995]}}, {"type": "Feature", "properties": {"name": "Bahnhof Stettbach"}, "geometry": {"type": "Point", "coordinates": [8.595477923076924, 47.39690992307692]}}, {"type": "Feature", "properties": {"name": "Zumikon, Dorfzentrum"}, "geometry": {"type": "Point", "coordinates": [8.623453, 47.332521199999995]}}, {"type": "Feature", "properties": {"name": "Oberengstringen, Lanzrain"}, "geometry": {"type": "Point", "coordinates": [8.4676445, 47.407449500000006]}}, {"type": "Feature", "properties": {"name": "Spreitenbach, Brüel"}, "geometry": {"type": "Point", "coordinates": [8.37180775, 47.418135]}}, {"type": "Feature", "properties": {"name": "Schlieren, Spital Limmattal"}, "geometry": {"type": "Point", "coordinates": [8.430225333333334, 47.392884]}}, {"type": "Feature", "properties": {"name": "Wangen, Stierwisen"}, "geometry": {"type": "Point", "coordinates": [8.642787, 47.4096165]}}, {"type": "Feature", "properties": {"name": "Urdorf, Herweg"}, "geometry": {"type": "Point", "coordinates": [8.418503833333334, 47.393204499999996]}}, {"type": "Feature", "properties": {"name": "Weiningen ZH, Schulhaus"}, "geometry": {"type": "Point", "coordinates": [8.429086333333332, 47.417559833333335]}}, {"type": "Feature", "properties": {"name": "Weiningen ZH, Aegelsee"}, "geometry": {"type": "Point", "coordinates": [8.4446045, 47.415586000000005]}}, {"type": "Feature", "properties": {"name": "Dietikon, Hätschen"}, "geometry": {"type": "Point", "coordinates": [8.39342525, 47.40223125]}}, {"type": "Feature", "properties": {"name": "Wangen, Hätzelwisen"}, "geometry": {"type": "Point", "coordinates": [8.6428725, 47.4102005]}}, {"type": "Feature", "properties": {"name": "Dietikon, Hagackerstrasse"}, "geometry": {"type": "Point", "coordinates": [8.396739499999999, 47.4174725]}}, {"type": "Feature", "properties": {"name": "Oetwil an der Limmat, Halde"}, "geometry": {"type": "Point", "coordinates": [8.4001935, 47.42559033333333]}}, {"type": "Feature", "properties": {"name": "Urdorf, Spitzacker"}, "geometry": {"type": "Point", "coordinates": [8.423396, 47.384122250000004]}}, {"type": "Feature", "properties": {"name": "Dietikon, Marmori-Weiher"}, "geometry": {"type": "Point", "coordinates": [8.394424, 47.399205]}}, {"type": "Feature", "properties": {"name": "Opfikon, Schwimmbad"}, "geometry": {"type": "Point", "coordinates": [8.5715565, 47.4315425]}}, {"type": "Feature", "properties": {"name": "Spreitenbach, Ikea"}, "geometry": {"type": "Point", "coordinates": [8.3740505, 47.422308]}}, {"type": "Feature", "properties": {"name": "Urdorf, Heinrich-Stutz-Strasse"}, "geometry": {"type": "Point", "coordinates": [8.425011999999999, 47.370537]}}, {"type": "Feature", "properties": {"name": "Unterengstringen, Langwisen"}, "geometry": {"type": "Point", "coordinates": [8.4480365, 47.408930999999995]}}, {"type": "Feature", "properties": {"name": "Geroldswil, Dorfstrasse"}, "geometry": {"type": "Point", "coordinates": [8.4131635, 47.42007975]}}, {"type": "Feature", "properties": {"name": "Mattenhof"}, "geometry": {"type": "Point", "coordinates": [8.59089525, 47.39867875]}}, {"type": "Feature", "properties": {"name": "Dübendorf, Kreuzbühl"}, "geometry": {"type": "Point", "coordinates": [8.621547333333334, 47.388719]}}, {"type": "Feature", "properties": {"name": "Spreitenbach, Asp"}, "geometry": {"type": "Point", "coordinates": [8.3796915, 47.4141585]}}, {"type": "Feature", "properties": {"name": "Dietikon, Lerzen"}, "geometry": {"type": "Point", "coordinates": [8.3991005, 47.41758299999999]}}, {"type": "Feature", "properties": {"name": "Schlieren, Talacker-Windegg"}, "geometry": {"type": "Point", "coordinates": [8.4478145, 47.405632]}}, {"type": "Feature", "properties": {"name": "Bergdietikon, Bergli"}, "geometry": {"type": "Point", "coordinates": [8.389616499999999, 47.3911335]}}, {"type": "Feature", "properties": {"name": "Glanzenberg, Bahnhof"}, "geometry": {"type": "Point", "coordinates": [8.419709, 47.39870966666667]}}, {"type": "Feature", "properties": {"name": "Brunaustrasse"}, "geometry": {"type": "Point", "coordinates": [8.532143666666666, 47.356373999999995]}}, {"type": "Feature", "properties": {"name": "Fahrweid, Brunaustrasse"}, "geometry": {"type": "Point", "coordinates": [8.4140825, 47.4143315]}}, {"type": "Feature", "properties": {"name": "Dietikon, Schönenwerd"}, "geometry": {"type": "Point", "coordinates": [8.424638, 47.397188]}}, {"type": "Feature", "properties": {"name": "Spreitenbach, Shopping Center"}, "geometry": {"type": "Point", "coordinates": [8.3681875, 47.42047575]}}, {"type": "Feature", "properties": {"name": "Urdorf, Neumatt"}, "geometry": {"type": "Point", "coordinates": [8.420284, 47.387362499999995]}}, {"type": "Feature", "properties": {"name": "Urdorf, Neumattstrasse"}, "geometry": {"type": "Point", "coordinates": [8.423124999999999, 47.3873605]}}, {"type": "Feature", "properties": {"name": "Waldgarten"}, "geometry": {"type": "Point", "coordinates": [8.557614, 47.4041055]}}, {"type": "Feature", "properties": {"name": "Bergdietikon, Bernold"}, "geometry": {"type": "Point", "coordinates": [8.3881435, 47.387981499999995]}}, {"type": "Feature", "properties": {"name": "Birmensdorf ZH, Ristet"}, "geometry": {"type": "Point", "coordinates": [8.428837, 47.365458000000004]}}, {"type": "Feature", "properties": {"name": "Fahrweid, Limmatbrücke"}, "geometry": {"type": "Point", "coordinates": [8.411946, 47.407649]}}, {"type": "Feature", "properties": {"name": "Dietikon, Staffelackerstrasse"}, "geometry": {"type": "Point", "coordinates": [8.390919499999999, 47.40178349999999]}}, {"type": "Feature", "properties": {"name": "Schlieren, Brunngasse"}, "geometry": {"type": "Point", "coordinates": [8.448040500000001, 47.3965855]}}, {"type": "Feature", "properties": {"name": "Dietikon, Dörfli"}, "geometry": {"type": "Point", "coordinates": [8.406581, 47.400448499999996]}}, {"type": "Feature", "properties": {"name": "Schlieren, Kesslerstrasse"}, "geometry": {"type": "Point", "coordinates": [8.438661666666667, 47.39633733333333]}}, {"type": "Feature", "properties": {"name": "Micafil"}, "geometry": {"type": "Point", "coordinates": [8.474601750000001, 47.393020250000006]}}, {"type": "Feature", "properties": {"name": "Bergdietikon, Dünni"}, "geometry": {"type": "Point", "coordinates": [8.393213000000001, 47.39447]}}, {"type": "Feature", "properties": {"name": "Urdorf, Uitikonerstrasse"}, "geometry": {"type": "Point", "coordinates": [8.426433333333334, 47.381758]}}, {"type": "Feature", "properties": {"name": "Killwangen, Bahnhof"}, "geometry": {"type": "Point", "coordinates": [8.354061, 47.43301766666667]}}, {"type": "Feature", "properties": {"name": "Spreitenbach, Altersheim"}, "geometry": {"type": "Point", "coordinates": [8.367954, 47.41878066666666]}}, {"type": "Feature", "properties": {"name": "Fahrweid, Au"}, "geometry": {"type": "Point", "coordinates": [8.414017333333334, 47.410787]}}, {"type": "Feature", "properties": {"name": "Urdorf, Niederurdorf"}, "geometry": {"type": "Point", "coordinates": [8.418575999999998, 47.390299999999996]}}, {"type": "Feature", "properties": {"name": "Dietikon, Stelzenacker"}, "geometry": {"type": "Point", "coordinates": [8.39189075, 47.40385575]}}, {"type": "Feature", "properties": {"name": "Dietikon, Moosmatt"}, "geometry": {"type": "Point", "coordinates": [8.393907666666665, 47.41942399999999]}}, {"type": "Feature", "properties": {"name": "Kindhausen AG"}, "geometry": {"type": "Point", "coordinates": [8.376039, 47.3941145]}}, {"type": "Feature", "properties": {"name": "Spreitenb, Center Spreitenbach"}, "geometry": {"type": "Point", "coordinates": [8.369826499999999, 47.422149]}}, {"type": "Feature", "properties": {"name": "Schlieren, Steinacker"}, "geometry": {"type": "Point", "coordinates": [8.42638275, 47.39629175]}}, {"type": "Feature", "properties": {"name": "Weiningen ZH, Lindenplatz"}, "geometry": {"type": "Point", "coordinates": [8.434431, 47.419717500000004]}}, {"type": "Feature", "properties": {"name": "Billoweg"}, "geometry": {"type": "Point", "coordinates": [8.531940500000001, 47.35163849999999]}}, {"type": "Feature", "properties": {"name": "Tierspital"}, "geometry": {"type": "Point", "coordinates": [8.552399909090909, 47.40212981818181]}}, {"type": "Feature", "properties": {"name": "Unterengstringen, Eckstein"}, "geometry": {"type": "Point", "coordinates": [8.449007, 47.4105015]}}, {"type": "Feature", "properties": {"name": "Oberengstringen, Eggbühl"}, "geometry": {"type": "Point", "coordinates": [8.474093, 47.405521]}}, {"type": "Feature", "properties": {"name": "Urdorf, Oberurdorf"}, "geometry": {"type": "Point", "coordinates": [8.422919, 47.377886]}}, {"type": "Feature", "properties": {"name": "Museum Rietberg"}, "geometry": {"type": "Point", "coordinates": [8.5327572, 47.36035059999999]}}, {"type": "Feature", "properties": {"name": "Stockerstrasse"}, "geometry": {"type": "Point", "coordinates": [8.535063083333332, 47.36779091666667]}}, {"type": "Feature", "properties": {"name": "Herzogenmühlestrasse"}, "geometry": {"type": "Point", "coordinates": [8.572754, 47.4073295]}}, {"type": "Feature", "properties": {"name": "Blumenfeldstrasse"}, "geometry": {"type": "Point", "coordinates": [8.5052305, 47.423781]}}, {"type": "Feature", "properties": {"name": "Aspholz"}, "geometry": {"type": "Point", "coordinates": [8.5009925, 47.424958]}}, {"type": "Feature", "properties": {"name": "Mühlacker"}, "geometry": {"type": "Point", "coordinates": [8.497049, 47.425951999999995]}}, {"type": "Feature", "properties": {"name": "Glockenacker"}, "geometry": {"type": "Point", "coordinates": [8.598879499999999, 47.360924999999995]}}, {"type": "Feature", "properties": {"name": "Ebmatingen, Leeacherstrasse"}, "geometry": {"type": "Point", "coordinates": [8.63412225, 47.35480525]}}, {"type": "Feature", "properties": {"name": "Carl-Spitteler-Strasse"}, "geometry": {"type": "Point", "coordinates": [8.587302666666666, 47.358162]}}, {"type": "Feature", "properties": {"name": "Neuaffoltern"}, "geometry": {"type": "Point", "coordinates": [8.525338666666665, 47.411758]}}, {"type": "Feature", "properties": {"name": "Benglen, Bodenacher"}, "geometry": {"type": "Point", "coordinates": [8.638536, 47.361221]}}, {"type": "Feature", "properties": {"name": "Benglen, Gerlisbrunnen"}, "geometry": {"type": "Point", "coordinates": [8.6327705, 47.360907499999996]}}, {"type": "Feature", "properties": {"name": "Pfaffhausen, Sängglen"}, "geometry": {"type": "Point", "coordinates": [8.624720499999999, 47.366833]}}, {"type": "Feature", "properties": {"name": "Kapfstrasse"}, "geometry": {"type": "Point", "coordinates": [8.571089, 47.361097]}}, {"type": "Feature", "properties": {"name": "Dreispitz"}, "geometry": {"type": "Point", "coordinates": [8.568149, 47.410720999999995]}}, {"type": "Feature", "properties": {"name": "Binz bei Maur, Fridlimatt"}, "geometry": {"type": "Point", "coordinates": [8.62460175, 47.359269]}}, {"type": "Feature", "properties": {"name": "Berghaldenstrasse"}, "geometry": {"type": "Point", "coordinates": [8.589843666666667, 47.358562]}}, {"type": "Feature", "properties": {"name": "Drusbergstrasse"}, "geometry": {"type": "Point", "coordinates": [8.578839, 47.3604135]}}, {"type": "Feature", "properties": {"name": "Unteraffoltern"}, "geometry": {"type": "Point", "coordinates": [8.5120134, 47.4242842]}}, {"type": "Feature", "properties": {"name": "Friedrichstrasse"}, "geometry": {"type": "Point", "coordinates": [8.5685275, 47.403898999999996]}}, {"type": "Feature", "properties": {"name": "Frohburg"}, "geometry": {"type": "Point", "coordinates": [8.562412, 47.404165500000005]}}, {"type": "Feature", "properties": {"name": "Oberwiesenstrasse"}, "geometry": {"type": "Point", "coordinates": [8.532665, 47.410486500000005]}}, {"type": "Feature", "properties": {"name": "Ebmatingen, Dorf"}, "geometry": {"type": "Point", "coordinates": [8.64258, 47.3508286]}}, {"type": "Feature", "properties": {"name": "Waserstrasse"}, "geometry": {"type": "Point", "coordinates": [8.5834025, 47.358594]}}, {"type": "Feature", "properties": {"name": "Fronwald"}, "geometry": {"type": "Point", "coordinates": [8.509833, 47.421980000000005]}}, {"type": "Feature", "properties": {"name": "Effretikon, Garage Andres"}, "geometry": {"type": "Point", "coordinates": [8.684498, 47.419978]}}, {"type": "Feature", "properties": {"name": "Pfaffhausen, Feldhof"}, "geometry": {"type": "Point", "coordinates": [8.6200855, 47.364101000000005]}}, {"type": "Feature", "properties": {"name": "Binz bei Maur, Post"}, "geometry": {"type": "Point", "coordinates": [8.627918833333332, 47.356975999999996]}}, {"type": "Feature", "properties": {"name": "Ebmatingen, Looren"}, "geometry": {"type": "Point", "coordinates": [8.6518056, 47.339414399999995]}}, {"type": "Feature", "properties": {"name": "Loorenstrasse"}, "geometry": {"type": "Point", "coordinates": [8.595261333333333, 47.35987366666666]}}, {"type": "Feature", "properties": {"name": "Hallenbad Oerlikon"}, "geometry": {"type": "Point", "coordinates": [8.555885, 47.410754]}}, {"type": "Feature", "properties": {"name": "Fällanden, Eggler"}, "geometry": {"type": "Point", "coordinates": [8.6347565, 47.3715555]}}, {"type": "Feature", "properties": {"name": "Max-Bill-Platz"}, "geometry": {"type": "Point", "coordinates": [8.541057333333335, 47.41401966666666]}}, {"type": "Feature", "properties": {"name": "Glaubtenstrasse"}, "geometry": {"type": "Point", "coordinates": [8.5193435, 47.414430625]}}, {"type": "Feature", "properties": {"name": "Maur, Dorf"}, "geometry": {"type": "Point", "coordinates": [8.6692365, 47.34041775]}}, {"type": "Feature", "properties": {"name": "Tulpenstrasse"}, "geometry": {"type": "Point", "coordinates": [8.56841, 47.406166999999996]}}, {"type": "Feature", "properties": {"name": "Einfangstrasse"}, "geometry": {"type": "Point", "coordinates": [8.512980500000001, 47.4157355]}}, {"type": "Feature", "properties": {"name": "Schwerzenbach ZH, Dorf"}, "geometry": {"type": "Point", "coordinates": [8.652014000000001, 47.380434]}}, {"type": "Feature", "properties": {"name": "Fällanden, Gemeindehaus"}, "geometry": {"type": "Point", "coordinates": [8.64045, 47.371087]}}, {"type": "Feature", "properties": {"name": "Dorflinde"}, "geometry": {"type": "Point", "coordinates": [8.55006675, 47.40706675]}}, {"type": "Feature", "properties": {"name": "Pfaffhausen, Pfaffenstein"}, "geometry": {"type": "Point", "coordinates": [8.6280175, 47.3686205]}}, {"type": "Feature", "properties": {"name": "Pfaffhausen, Müseren"}, "geometry": {"type": "Point", "coordinates": [8.617368666666666, 47.362699]}}, {"type": "Feature", "properties": {"name": "Friedackerstrasse"}, "geometry": {"type": "Point", "coordinates": [8.553504499999999, 47.4058845]}}, {"type": "Feature", "properties": {"name": "Maur, Platten"}, "geometry": {"type": "Point", "coordinates": [8.6607315, 47.343353]}}, {"type": "Feature", "properties": {"name": "Saatlenstrasse"}, "geometry": {"type": "Point", "coordinates": [8.563318, 47.410774]}}, {"type": "Feature", "properties": {"name": "Friedhof Witikon"}, "geometry": {"type": "Point", "coordinates": [8.602709, 47.36139]}}, {"type": "Feature", "properties": {"name": "Maur, Kirche"}, "geometry": {"type": "Point", "coordinates": [8.674011, 47.337841]}}, {"type": "Feature", "properties": {"name": "Riedgraben"}, "geometry": {"type": "Point", "coordinates": [8.558842, 47.4108025]}}, {"type": "Feature", "properties": {"name": "Fällanden, Industrie"}, "geometry": {"type": "Point", "coordinates": [8.644299, 47.376035]}}, {"type": "Feature", "properties": {"name": "Fällanden, Schützenhaus"}, "geometry": {"type": "Point", "coordinates": [8.6324595, 47.3686155]}}, {"type": "Feature", "properties": {"name": "Herbstweg"}, "geometry": {"type": "Point", "coordinates": [8.564731, 47.408892]}}, {"type": "Feature", "properties": {"name": "Schlyfi"}, "geometry": {"type": "Point", "coordinates": [8.574256, 47.3624965]}}, {"type": "Feature", "properties": {"name": "Maur, See"}, "geometry": {"type": "Point", "coordinates": [8.67793875, 47.33979625]}}, {"type": "Feature", "properties": {"name": "Unterengstringen, Langacher"}, "geometry": {"type": "Point", "coordinates": [8.4532735, 47.412227]}}, {"type": "Feature", "properties": {"name": "Schlieren, Feldstrasse"}, "geometry": {"type": "Point", "coordinates": [8.4483394, 47.4024578]}}, {"type": "Feature", "properties": {"name": "Dietikon, Oberdorf"}, "geometry": {"type": "Point", "coordinates": [8.396313428571428, 47.40202557142857]}}, {"type": "Feature", "properties": {"name": "Oetwil an der Limmat, Oberdorf"}, "geometry": {"type": "Point", "coordinates": [8.398078666666667, 47.427755]}}, {"type": "Feature", "properties": {"name": "Urdorf, Luberzen"}, "geometry": {"type": "Point", "coordinates": [8.42317375, 47.3944885]}}, {"type": "Feature", "properties": {"name": "Luchswiesen"}, "geometry": {"type": "Point", "coordinates": [8.585360857142858, 47.40668628571428]}}, {"type": "Feature", "properties": {"name": "Urdorf, Sonne"}, "geometry": {"type": "Point", "coordinates": [8.423020333333334, 47.381468000000005]}}, {"type": "Feature", "properties": {"name": "Dübendorf, Innovationspark"}, "geometry": {"type": "Point", "coordinates": [8.630552999999999, 47.405628]}}, {"type": "Feature", "properties": {"name": "Dietikon, Oetwilerstrasse"}, "geometry": {"type": "Point", "coordinates": [8.3962856, 47.406963600000005]}}, {"type": "Feature", "properties": {"name": "Kindhausen AG, Eichholz"}, "geometry": {"type": "Point", "coordinates": [8.380393999999999, 47.3943055]}}, {"type": "Feature", "properties": {"name": "Post Wollishofen"}, "geometry": {"type": "Point", "coordinates": [8.533225833333333, 47.344845666666664]}}, {"type": "Feature", "properties": {"name": "Butzenstrasse"}, "geometry": {"type": "Point", "coordinates": [8.530041375, 47.341077875]}}, {"type": "Feature", "properties": {"name": "Probstei"}, "geometry": {"type": "Point", "coordinates": [8.58624325, 47.40028600000001]}}, {"type": "Feature", "properties": {"name": "Dietikon, Gyrhalden"}, "geometry": {"type": "Point", "coordinates": [8.391757333333333, 47.40072633333333]}}, {"type": "Feature", "properties": {"name": "Dietikon, Weidstrasse"}, "geometry": {"type": "Point", "coordinates": [8.388034000000001, 47.400800000000004]}}, {"type": "Feature", "properties": {"name": "Dietikon, Lätten"}, "geometry": {"type": "Point", "coordinates": [8.384992, 47.402206]}}, {"type": "Feature", "properties": {"name": "Dietikon, Weinberg"}, "geometry": {"type": "Point", "coordinates": [8.3818245, 47.402146]}}, {"type": "Feature", "properties": {"name": "Wangen, Weidli"}, "geometry": {"type": "Point", "coordinates": [8.639882499999999, 47.41244450000001]}}, {"type": "Feature", "properties": {"name": "Kilchberg ZH, Obere Hornhalde"}, "geometry": {"type": "Point", "coordinates": [8.538159, 47.331592]}}, {"type": "Feature", "properties": {"name": "Kilchberg ZH, Emilienheim"}, "geometry": {"type": "Point", "coordinates": [8.538189, 47.329235]}}, {"type": "Feature", "properties": {"name": "Kilchberg ZH, Breitloo"}, "geometry": {"type": "Point", "coordinates": [8.539475999999999, 47.326190999999994]}}, {"type": "Feature", "properties": {"name": "Schlieren, Gasometerbrücke"}, "geometry": {"type": "Point", "coordinates": [8.46028575, 47.3977015]}}, {"type": "Feature", "properties": {"name": "Tunnelstrasse"}, "geometry": {"type": "Point", "coordinates": [8.532659285714285, 47.36613842857143]}}, {"type": "Feature", "properties": {"name": "Ottikerstrasse"}, "geometry": {"type": "Point", "coordinates": [8.5423505, 47.385505]}}, {"type": "Feature", "properties": {"name": "Roswiesen"}, "geometry": {"type": "Point", "coordinates": [8.577099749999999, 47.402958]}}, {"type": "Feature", "properties": {"name": "Rote Fabrik"}, "geometry": {"type": "Point", "coordinates": [8.53561775, 47.343319]}}, {"type": "Feature", "properties": {"name": "Dietikon, Garage Limmatbus AG"}, "geometry": {"type": "Point", "coordinates": [8.407581333333335, 47.40831966666667]}}, {"type": "Feature", "properties": {"name": "Geroldswil, Welbrig"}, "geometry": {"type": "Point", "coordinates": [8.417867333333334, 47.418394]}}, {"type": "Feature", "properties": {"name": "Oberengstringen, Paradies"}, "geometry": {"type": "Point", "coordinates": [8.457575, 47.41133]}}, {"type": "Feature", "properties": {"name": "Schlieren, Mülligen"}, "geometry": {"type": "Point", "coordinates": [8.467002999999998, 47.39584475]}}, {"type": "Feature", "properties": {"name": "Bahnhof Selnau"}, "geometry": {"type": "Point", "coordinates": [8.531693749999999, 47.370782999999996]}}, {"type": "Feature", "properties": {"name": "Fällanden, Neuhus"}, "geometry": {"type": "Point", "coordinates": [8.6450565, 47.368534]}}, {"type": "Feature", "properties": {"name": "Hardplatz"}, "geometry": {"type": "Point", "coordinates": [8.513830733333334, 47.38165953333334]}}, {"type": "Feature", "properties": {"name": "Bäckeranlage"}, "geometry": {"type": "Point", "coordinates": [8.523266333333332, 47.378617166666665]}}, {"type": "Feature", "properties": {"name": "Helvetiaplatz"}, "geometry": {"type": "Point", "coordinates": [8.5257732, 47.376287]}}, {"type": "Feature", "properties": {"name": "Güterbahnhof"}, "geometry": {"type": "Point", "coordinates": [8.520118, 47.3803798]}}, {"type": "Feature", "properties": {"name": "Am Suteracher"}, "geometry": {"type": "Point", "coordinates": [8.469763, 47.390924999999996]}}, {"type": "Feature", "properties": {"name": "Schulhaus Buchlern"}, "geometry": {"type": "Point", "coordinates": [8.4779735, 47.38457075]}}, {"type": "Feature", "properties": {"name": "Dunkelhölzli"}, "geometry": {"type": "Point", "coordinates": [8.4703245, 47.3886805]}}, {"type": "Feature", "properties": {"name": "Bristenstrasse"}, "geometry": {"type": "Point", "coordinates": [8.4870185, 47.390068]}}, {"type": "Feature", "properties": {"name": "Solidapark"}, "geometry": {"type": "Point", "coordinates": [8.488499000000001, 47.387706]}}, {"type": "Feature", "properties": {"name": "Lindenplatz"}, "geometry": {"type": "Point", "coordinates": [8.486354272727274, 47.38770736363636]}}, {"type": "Feature", "properties": {"name": "Bahnhof Altstetten N"}, "geometry": {"type": "Point", "coordinates": [8.488904199999999, 47.392455]}}, {"type": "Feature", "properties": {"name": "Loogarten"}, "geometry": {"type": "Point", "coordinates": [8.47261625, 47.38943775]}}, {"type": "Feature", "properties": {"name": "Bändliweg"}, "geometry": {"type": "Point", "coordinates": [8.486282800000001, 47.396168]}}, {"type": "Feature", "properties": {"name": "Feusisbergli"}, "geometry": {"type": "Point", "coordinates": [8.470965, 47.392608499999994]}}, {"type": "Feature", "properties": {"name": "Bahnhof Altstetten"}, "geometry": {"type": "Point", "coordinates": [8.4888141, 47.3908383]}}, {"type": "Feature", "properties": {"name": "Neeserweg"}, "geometry": {"type": "Point", "coordinates": [8.475232, 47.39030975]}}, {"type": "Feature", "properties": {"name": "Rautihalde"}, "geometry": {"type": "Point", "coordinates": [8.4736855, 47.3866085]}}, {"type": "Feature", "properties": {"name": "Rautistrasse"}, "geometry": {"type": "Point", "coordinates": [8.484243166666667, 47.383333333333326]}}, {"type": "Feature", "properties": {"name": "Grünaustrasse"}, "geometry": {"type": "Point", "coordinates": [8.48947575, 47.394903]}}, {"type": "Feature", "properties": {"name": "Friedhof Eichbühl"}, "geometry": {"type": "Point", "coordinates": [8.474679, 47.382875]}}, {"type": "Feature", "properties": {"name": "Salzweg"}, "geometry": {"type": "Point", "coordinates": [8.4717075, 47.387737]}}, {"type": "Feature", "properties": {"name": "Baslerstrasse"}, "geometry": {"type": "Point", "coordinates": [8.489640999999999, 47.388786999999994]}}, {"type": "Feature", "properties": {"name": "Itschnach, Dorf"}, "geometry": {"type": "Point", "coordinates": [8.601703, 47.327546500000004]}}, {"type": "Feature", "properties": {"name": "Itschnach, Fallacher"}, "geometry": {"type": "Point", "coordinates": [8.605973, 47.328973999999995]}}, {"type": "Feature", "properties": {"name": "Laubegg"}, "geometry": {"type": "Point", "coordinates": [8.516953571428571, 47.35894614285714]}}, {"type": "Feature", "properties": {"name": "Sukkulentensammlung"}, "geometry": {"type": "Point", "coordinates": [8.534393000000001, 47.35589699999999]}}, {"type": "Feature", "properties": {"name": "Kilchberg ZH, Schooren"}, "geometry": {"type": "Point", "coordinates": [8.553278333333333, 47.317727999999995]}}, {"type": "Feature", "properties": {"name": "Hertensteinstrasse"}, "geometry": {"type": "Point", "coordinates": [8.543647, 47.422822]}}, {"type": "Feature", "properties": {"name": "Rüschlikon, Bodengasse"}, "geometry": {"type": "Point", "coordinates": [8.552812, 47.31037499999999]}}, {"type": "Feature", "properties": {"name": "Küsnacht ZH, Boglerenstrasse"}, "geometry": {"type": "Point", "coordinates": [8.582301000000001, 47.326184]}}, {"type": "Feature", "properties": {"name": "Rüschlikon, Bahnhof"}, "geometry": {"type": "Point", "coordinates": [8.553691714285714, 47.30863757142857]}}, {"type": "Feature", "properties": {"name": "Rüschlikon, Säumerstrasse"}, "geometry": {"type": "Point", "coordinates": [8.546431666666665, 47.30819966666667]}}, {"type": "Feature", "properties": {"name": "Bircher-Benner"}, "geometry": {"type": "Point", "coordinates": [8.5648915, 47.375744]}}, {"type": "Feature", "properties": {"name": "Birchstrasse"}, "geometry": {"type": "Point", "coordinates": [8.535824999999999, 47.413051499999995]}}, {"type": "Feature", "properties": {"name": "Lehenstrasse"}, "geometry": {"type": "Point", "coordinates": [8.521172, 47.39608575]}}, {"type": "Feature", "properties": {"name": "Albisriederdörfli"}, "geometry": {"type": "Point", "coordinates": [8.485008, 47.375383500000005]}}, {"type": "Feature", "properties": {"name": "Jugendherberge"}, "geometry": {"type": "Point", "coordinates": [8.528057000000002, 47.347699]}}, {"type": "Feature", "properties": {"name": "Althoos"}, "geometry": {"type": "Point", "coordinates": [8.524121, 47.410638999999996]}}, {"type": "Feature", "properties": {"name": "Susenbergstrasse"}, "geometry": {"type": "Point", "coordinates": [8.56752775, 47.37860275]}}, {"type": "Feature", "properties": {"name": "Kalchbühlweg"}, "geometry": {"type": "Point", "coordinates": [8.531500999999999, 47.340514999999996]}}, {"type": "Feature", "properties": {"name": "Küsnacht ZH, Hesligenstrasse"}, "geometry": {"type": "Point", "coordinates": [8.593357000000001, 47.315608]}}, {"type": "Feature", "properties": {"name": "Kanonengasse"}, "geometry": {"type": "Point", "coordinates": [8.5301525, 47.378425]}}, {"type": "Feature", "properties": {"name": "Kantonsschule"}, "geometry": {"type": "Point", "coordinates": [8.5504422, 47.372724600000005]}}, {"type": "Feature", "properties": {"name": "Maienweg"}, "geometry": {"type": "Point", "coordinates": [8.526491, 47.407617]}}, {"type": "Feature", "properties": {"name": "Sportweg"}, "geometry": {"type": "Point", "coordinates": [8.50538925, 47.39169]}}, {"type": "Feature", "properties": {"name": "Manesseplatz"}, "geometry": {"type": "Point", "coordinates": [8.521616666666667, 47.36566299999999]}}, {"type": "Feature", "properties": {"name": "Küsnacht ZH, Himmelistrasse"}, "geometry": {"type": "Point", "coordinates": [8.5926945, 47.31340125]}}, {"type": "Feature", "properties": {"name": "Marbachweg"}, "geometry": {"type": "Point", "coordinates": [8.514797000000002, 47.330759]}}, {"type": "Feature", "properties": {"name": "Pflegezentr. Käferberg"}, "geometry": {"type": "Point", "coordinates": [8.5179375, 47.3997275]}}, {"type": "Feature", "properties": {"name": "Tüffenwies"}, "geometry": {"type": "Point", "coordinates": [8.4947132, 47.3979012]}}, {"type": "Feature", "properties": {"name": "Krematorium Nordheim"}, "geometry": {"type": "Point", "coordinates": [8.5281345, 47.405393000000004]}}, {"type": "Feature", "properties": {"name": "Altes Krematorium"}, "geometry": {"type": "Point", "coordinates": [8.507653, 47.37767233333333]}}, {"type": "Feature", "properties": {"name": "Küsnacht ZH, Bühlstrasse"}, "geometry": {"type": "Point", "coordinates": [8.579568, 47.332013]}}, {"type": "Feature", "properties": {"name": "Chaletweg"}, "geometry": {"type": "Point", "coordinates": [8.531207000000002, 47.413383]}}, {"type": "Feature", "properties": {"name": "Zollikon, Seestrasse"}, "geometry": {"type": "Point", "coordinates": [8.567356, 47.342164000000004]}}, {"type": "Feature", "properties": {"name": "Mötteliweg"}, "geometry": {"type": "Point", "coordinates": [8.526488, 47.413963]}}, {"type": "Feature", "properties": {"name": "Segantinistrasse"}, "geometry": {"type": "Point", "coordinates": [8.4898135, 47.407537500000004]}}, {"type": "Feature", "properties": {"name": "Zollikon, Höhestrasse"}, "geometry": {"type": "Point", "coordinates": [8.581185999999999, 47.339913]}}, {"type": "Feature", "properties": {"name": "Technopark"}, "geometry": {"type": "Point", "coordinates": [8.515763250000001, 47.388857]}}, {"type": "Feature", "properties": {"name": "Bürkliplatz"}, "geometry": {"type": "Point", "coordinates": [8.54085925, 47.366757875]}}, {"type": "Feature", "properties": {"name": "Seidelhof"}, "geometry": {"type": "Point", "coordinates": [8.483712666666667, 47.391945]}}, {"type": "Feature", "properties": {"name": "Rüschlikon, Belvoir"}, "geometry": {"type": "Point", "coordinates": [8.548959333333334, 47.306991333333336]}}, {"type": "Feature", "properties": {"name": "Lerchenrain"}, "geometry": {"type": "Point", "coordinates": [8.509474, 47.414328499999996]}}, {"type": "Feature", "properties": {"name": "Leimgrübelstrasse"}, "geometry": {"type": "Point", "coordinates": [8.5436335, 47.42806625]}}, {"type": "Feature", "properties": {"name": "Schauenberg"}, "geometry": {"type": "Point", "coordinates": [8.506953000000001, 47.416178]}}, {"type": "Feature", "properties": {"name": "Schlieren, Goldschlägistrasse"}, "geometry": {"type": "Point", "coordinates": [8.439107250000001, 47.400547]}}, {"type": "Feature", "properties": {"name": "Schlieren, Am Rietpark"}, "geometry": {"type": "Point", "coordinates": [8.443904999999999, 47.4013395]}}, {"type": "Feature", "properties": {"name": "Sprecherstrasse"}, "geometry": {"type": "Point", "coordinates": [8.552308, 47.3676615]}}, {"type": "Feature", "properties": {"name": "Binz Center"}, "geometry": {"type": "Point", "coordinates": [8.511393, 47.3618585]}}, {"type": "Feature", "properties": {"name": "Spyriplatz"}, "geometry": {"type": "Point", "coordinates": [8.552111, 47.38230349999999]}}, {"type": "Feature", "properties": {"name": "Bocklerstrasse"}, "geometry": {"type": "Point", "coordinates": [8.567366999999999, 47.402597]}}, {"type": "Feature", "properties": {"name": "Lerchenhalde"}, "geometry": {"type": "Point", "coordinates": [8.509693333333333, 47.411744999999996]}}, {"type": "Feature", "properties": {"name": "Chinagarten"}, "geometry": {"type": "Point", "coordinates": [8.552420666666666, 47.35521166666666]}}, {"type": "Feature", "properties": {"name": "Brandschenkestrasse"}, "geometry": {"type": "Point", "coordinates": [8.533573333333333, 47.369712]}}, {"type": "Feature", "properties": {"name": "Hinterbergstrasse"}, "geometry": {"type": "Point", "coordinates": [8.554547999999999, 47.380108]}}, {"type": "Feature", "properties": {"name": "Meierhofplatz"}, "geometry": {"type": "Point", "coordinates": [8.499992333333333, 47.40203583333334]}}, {"type": "Feature", "properties": {"name": "Schumacherweg"}, "geometry": {"type": "Point", "coordinates": [8.514771, 47.412215]}}, {"type": "Feature", "properties": {"name": "Neunbrunnen"}, "geometry": {"type": "Point", "coordinates": [8.53820925, 47.41681025]}}, {"type": "Feature", "properties": {"name": "Hönggerberg"}, "geometry": {"type": "Point", "coordinates": [8.50496725, 47.40502025]}}, {"type": "Feature", "properties": {"name": "Kreuzstrasse"}, "geometry": {"type": "Point", "coordinates": [8.549302166666665, 47.36307383333334]}}, {"type": "Feature", "properties": {"name": "Würzgraben"}, "geometry": {"type": "Point", "coordinates": [8.493933249999998, 47.392118999999994]}}, {"type": "Feature", "properties": {"name": "Waidfussweg"}, "geometry": {"type": "Point", "coordinates": [8.519060499999998, 47.395345]}}, {"type": "Feature", "properties": {"name": "Höschgasse"}, "geometry": {"type": "Point", "coordinates": [8.554033888888888, 47.35770455555556]}}, {"type": "Feature", "properties": {"name": "Waidhof"}, "geometry": {"type": "Point", "coordinates": [8.523899499999999, 47.423832]}}, {"type": "Feature", "properties": {"name": "Hügelstrasse"}, "geometry": {"type": "Point", "coordinates": [8.526542499999998, 47.358316]}}, {"type": "Feature", "properties": {"name": "Waidspital"}, "geometry": {"type": "Point", "coordinates": [8.521435666666667, 47.39923433333333]}}, {"type": "Feature", "properties": {"name": "Freiestrasse"}, "geometry": {"type": "Point", "coordinates": [8.5627995, 47.3628785]}}, {"type": "Feature", "properties": {"name": "Hofstrasse"}, "geometry": {"type": "Point", "coordinates": [8.562381250000001, 47.372677499999995]}}, {"type": "Feature", "properties": {"name": "Lettenstrasse"}, "geometry": {"type": "Point", "coordinates": [8.532333, 47.390241]}}, {"type": "Feature", "properties": {"name": "Bergstation Dolderbahn"}, "geometry": {"type": "Point", "coordinates": [8.576132333333334, 47.37378933333333]}}, {"type": "Feature", "properties": {"name": "Dreiwiesen"}, "geometry": {"type": "Point", "coordinates": [8.575408333333334, 47.378773333333335]}}, {"type": "Feature", "properties": {"name": "Stadtgrenze"}, "geometry": {"type": "Point", "coordinates": [8.541815333333332, 47.334825]}}, {"type": "Feature", "properties": {"name": "Letzipark West"}, "geometry": {"type": "Point", "coordinates": [8.496206, 47.38649]}}, {"type": "Feature", "properties": {"name": "Talwiesenstrasse"}, "geometry": {"type": "Point", "coordinates": [8.509487333333333, 47.369842]}}, {"type": "Feature", "properties": {"name": "Zollikon, Dufourplatz"}, "geometry": {"type": "Point", "coordinates": [8.572744499999999, 47.34028175]}}, {"type": "Feature", "properties": {"name": "Kempfhofsteig"}, "geometry": {"type": "Point", "coordinates": [8.5098435, 47.3974775]}}, {"type": "Feature", "properties": {"name": "Toni-Areal"}, "geometry": {"type": "Point", "coordinates": [8.5106195, 47.3901125]}}, {"type": "Feature", "properties": {"name": "Fällanden, Bruggacher"}, "geometry": {"type": "Point", "coordinates": [8.6325565, 47.3749965]}}, {"type": "Feature", "properties": {"name": "Brunau/Mutschellenstr."}, "geometry": {"type": "Point", "coordinates": [8.527498666666666, 47.35491833333333]}}, {"type": "Feature", "properties": {"name": "Uetlihof"}, "geometry": {"type": "Point", "coordinates": [8.513950000000001, 47.35675]}}, {"type": "Feature", "properties": {"name": "Schwandenholz"}, "geometry": {"type": "Point", "coordinates": [8.519222000000001, 47.423829000000005]}}, {"type": "Feature", "properties": {"name": "Eschergutweg"}, "geometry": {"type": "Point", "coordinates": [8.5129945, 47.396364500000004]}}, {"type": "Feature", "properties": {"name": "Hürstholz"}, "geometry": {"type": "Point", "coordinates": [8.5228965, 47.416875000000005]}}, {"type": "Feature", "properties": {"name": "Hölderlinsteig"}, "geometry": {"type": "Point", "coordinates": [8.565088800000002, 47.3665502]}}, {"type": "Feature", "properties": {"name": "Botanischer Garten"}, "geometry": {"type": "Point", "coordinates": [8.557724499999999, 47.35936099999999]}}, {"type": "Feature", "properties": {"name": "Klosbach"}, "geometry": {"type": "Point", "coordinates": [8.5639038, 47.369976599999994]}}, {"type": "Feature", "properties": {"name": "Siemens"}, "geometry": {"type": "Point", "coordinates": [8.493278, 47.37819775]}}, {"type": "Feature", "properties": {"name": "Neumarkt"}, "geometry": {"type": "Point", "coordinates": [8.5473844, 47.3728002]}}, {"type": "Feature", "properties": {"name": "Küsnacht ZH, Bergstrasse"}, "geometry": {"type": "Point", "coordinates": [8.589596499999999, 47.314485000000005]}}, {"type": "Feature", "properties": {"name": "Schweizer Rück"}, "geometry": {"type": "Point", "coordinates": [8.534878500000001, 47.359822750000006]}}, {"type": "Feature", "properties": {"name": "Bernoulli-Häuser"}, "geometry": {"type": "Point", "coordinates": [8.5086385, 47.393854499999996]}}, {"type": "Feature", "properties": {"name": "Bertastrasse"}, "geometry": {"type": "Point", "coordinates": [8.5134945, 47.3738675]}}, {"type": "Feature", "properties": {"name": "Michelstrasse"}, "geometry": {"type": "Point", "coordinates": [8.4955025, 47.406460499999994]}}, {"type": "Feature", "properties": {"name": "Schützenhaus Höngg"}, "geometry": {"type": "Point", "coordinates": [8.496689, 47.409508]}}, {"type": "Feature", "properties": {"name": "Küsnacht ZH, Oberwacht"}, "geometry": {"type": "Point", "coordinates": [8.5845105, 47.319411]}}, {"type": "Feature", "properties": {"name": "Militär-/Langstrasse"}, "geometry": {"type": "Point", "coordinates": [8.52771525, 47.37969124999999]}}, {"type": "Feature", "properties": {"name": "Wildbachstrasse"}, "geometry": {"type": "Point", "coordinates": [8.558829500000002, 47.3532115]}}, {"type": "Feature", "properties": {"name": "Dübendorf, Kämmaten"}, "geometry": {"type": "Point", "coordinates": [8.596632499999998, 47.389412500000006]}}, {"type": "Feature", "properties": {"name": "Besenrainstrasse"}, "geometry": {"type": "Point", "coordinates": [8.527847999999999, 47.345686]}}, {"type": "Feature", "properties": {"name": "Bethanien"}, "geometry": {"type": "Point", "coordinates": [8.556061, 47.380885]}}, {"type": "Feature", "properties": {"name": "Sihlstrasse"}, "geometry": {"type": "Point", "coordinates": [8.535036499999999, 47.371996499999995]}}, {"type": "Feature", "properties": {"name": "Sihlweidstrasse"}, "geometry": {"type": "Point", "coordinates": [8.5145175, 47.326503]}}, {"type": "Feature", "properties": {"name": "Zollikon, Beugi"}, "geometry": {"type": "Point", "coordinates": [8.5752565, 47.336441]}}, {"type": "Feature", "properties": {"name": "Friesenberg"}, "geometry": {"type": "Point", "coordinates": [8.5080685, 47.3644915]}}, {"type": "Feature", "properties": {"name": "Friesenbergstrasse"}, "geometry": {"type": "Point", "coordinates": [8.50484475, 47.362155249999994]}}, {"type": "Feature", "properties": {"name": "Küsnacht ZH, Zentrum"}, "geometry": {"type": "Point", "coordinates": [8.581966999999999, 47.318322]}}, {"type": "Feature", "properties": {"name": "Thujastrasse"}, "geometry": {"type": "Point", "coordinates": [8.5277755, 47.350216]}}, {"type": "Feature", "properties": {"name": "ETH Hönggerberg"}, "geometry": {"type": "Point", "coordinates": [8.506369416666667, 47.40876975]}}, {"type": "Feature", "properties": {"name": "Käshaldenstrasse"}, "geometry": {"type": "Point", "coordinates": [8.541018000000001, 47.429953499999996]}}, {"type": "Feature", "properties": {"name": "Zollikon, Felbenstrasse"}, "geometry": {"type": "Point", "coordinates": [8.569623499999999, 47.3431795]}}, {"type": "Feature", "properties": {"name": "Küsnacht ZH, Bahnhof"}, "geometry": {"type": "Point", "coordinates": [8.580352000000001, 47.31914985714286]}}, {"type": "Feature", "properties": {"name": "Wartau"}, "geometry": {"type": "Point", "coordinates": [8.492321333333335, 47.402595]}}, {"type": "Feature", "properties": {"name": "Nordheimstrasse"}, "geometry": {"type": "Point", "coordinates": [8.5305025, 47.403607]}}, {"type": "Feature", "properties": {"name": "Nordstrasse"}, "geometry": {"type": "Point", "coordinates": [8.536088249999999, 47.388362]}}, {"type": "Feature", "properties": {"name": "Seerose"}, "geometry": {"type": "Point", "coordinates": [8.537534666666666, 47.33856299999999]}}, {"type": "Feature", "properties": {"name": "Rüschlikon, Rebsteig"}, "geometry": {"type": "Point", "coordinates": [8.550788, 47.312239]}}, {"type": "Feature", "properties": {"name": "Dübendorf, Wasserfurren"}, "geometry": {"type": "Point", "coordinates": [8.611875000000001, 47.3935725]}}, {"type": "Feature", "properties": {"name": "Grubenstrasse"}, "geometry": {"type": "Point", "coordinates": [8.511689, 47.362829]}}, {"type": "Feature", "properties": {"name": "Frymannstrasse"}, "geometry": {"type": "Point", "coordinates": [8.519034000000001, 47.335231]}}, {"type": "Feature", "properties": {"name": "Fröhlichstrasse"}, "geometry": {"type": "Point", "coordinates": [8.55644, 47.3553134]}}, {"type": "Feature", "properties": {"name": "Aesch bei Maur, Zollingerheim"}, "geometry": {"type": "Point", "coordinates": [8.656474, 47.326702499999996]}}, {"type": "Feature", "properties": {"name": "Buhnstrasse"}, "geometry": {"type": "Point", "coordinates": [8.53891125, 47.422293749999994]}}, {"type": "Feature", "properties": {"name": "Berufswahlschule"}, "geometry": {"type": "Point", "coordinates": [8.533286, 47.404301000000004]}}, {"type": "Feature", "properties": {"name": "Vulkanstrasse"}, "geometry": {"type": "Point", "coordinates": [8.4841245, 47.394456500000004]}}, {"type": "Feature", "properties": {"name": "Untermoosstrasse"}, "geometry": {"type": "Point", "coordinates": [8.4833575, 47.379689500000005]}}, {"type": "Feature", "properties": {"name": "Feldeggstrasse"}, "geometry": {"type": "Point", "coordinates": [8.551511000000001, 47.360116000000005]}}, {"type": "Feature", "properties": {"name": "Nürenbergstrasse"}, "geometry": {"type": "Point", "coordinates": [8.5329885, 47.392393999999996]}}, {"type": "Feature", "properties": {"name": "Orionstrasse"}, "geometry": {"type": "Point", "coordinates": [8.566462, 47.4167955]}}, {"type": "Feature", "properties": {"name": "Winzerstrasse Süd"}, "geometry": {"type": "Point", "coordinates": [8.4863875, 47.403107500000004]}}, {"type": "Feature", "properties": {"name": "Zollikon, Bahnhof"}, "geometry": {"type": "Point", "coordinates": [8.569882333333334, 47.33760899999999]}}, {"type": "Feature", "properties": {"name": "Tobelhof"}, "geometry": {"type": "Point", "coordinates": [8.586019, 47.383105]}}, {"type": "Feature", "properties": {"name": "Zoo"}, "geometry": {"type": "Point", "coordinates": [8.572312666666667, 47.38243083333334]}}, {"type": "Feature", "properties": {"name": "Waffenplatz-/Bederstr."}, "geometry": {"type": "Point", "coordinates": [8.526340999999999, 47.361019]}}, {"type": "Feature", "properties": {"name": "Toblerplatz"}, "geometry": {"type": "Point", "coordinates": [8.559523, 47.3791785]}}, {"type": "Feature", "properties": {"name": "Birchdörfli"}, "geometry": {"type": "Point", "coordinates": [8.530629999999999, 47.407551]}}, {"type": "Feature", "properties": {"name": "Förrlibuckstrasse"}, "geometry": {"type": "Point", "coordinates": [8.51692225, 47.392129249999996]}}, {"type": "Feature", "properties": {"name": "Staudenbühl"}, "geometry": {"type": "Point", "coordinates": [8.5353395, 47.4200405]}}, {"type": "Feature", "properties": {"name": "EPI-Klinik"}, "geometry": {"type": "Point", "coordinates": [8.570760499999999, 47.348741000000004]}}, {"type": "Feature", "properties": {"name": "Winzerhalde"}, "geometry": {"type": "Point", "coordinates": [8.494647500000001, 47.400073000000006]}}, {"type": "Feature", "properties": {"name": "Winzerstrasse"}, "geometry": {"type": "Point", "coordinates": [8.486535333333334, 47.403679000000004]}}, {"type": "Feature", "properties": {"name": "Wipkingerplatz"}, "geometry": {"type": "Point", "coordinates": [8.5235374, 47.392538]}}, {"type": "Feature", "properties": {"name": "Fellenbergstrasse"}, "geometry": {"type": "Point", "coordinates": [8.488165400000002, 47.37567979999999]}}, {"type": "Feature", "properties": {"name": "Strassenverkehrsamt"}, "geometry": {"type": "Point", "coordinates": [8.510986538461538, 47.353293461538456]}}, {"type": "Feature", "properties": {"name": "Gockhausen, Dorf"}, "geometry": {"type": "Point", "coordinates": [8.598052500000001, 47.38202]}}, {"type": "Feature", "properties": {"name": "Glaubtenstrasse Süd"}, "geometry": {"type": "Point", "coordinates": [8.518477, 47.413596999999996]}}, {"type": "Feature", "properties": {"name": "Goldackerweg"}, "geometry": {"type": "Point", "coordinates": [8.487518999999999, 47.372096]}}, {"type": "Feature", "properties": {"name": "Rüschlikon, Weidstrasse"}, "geometry": {"type": "Point", "coordinates": [8.5529415, 47.3058045]}}, {"type": "Feature", "properties": {"name": "Zweiackerstrasse"}, "geometry": {"type": "Point", "coordinates": [8.59806, 47.3570245]}}, {"type": "Feature", "properties": {"name": "Höfliweg"}, "geometry": {"type": "Point", "coordinates": [8.51094866666667, 47.367708]}}, {"type": "Feature", "properties": {"name": "Dübendorf, Högler"}, "geometry": {"type": "Point", "coordinates": [8.61592275, 47.39161825]}}, {"type": "Feature", "properties": {"name": "Luegisland"}, "geometry": {"type": "Point", "coordinates": [8.581311249999999, 47.40598625]}}, {"type": "Feature", "properties": {"name": "Zwielplatz"}, "geometry": {"type": "Point", "coordinates": [8.4964975, 47.402179]}}, {"type": "Feature", "properties": {"name": "Küsnacht ZH, Obere Heslibachst"}, "geometry": {"type": "Point", "coordinates": [8.585272333333334, 47.316902666666664]}}, {"type": "Feature", "properties": {"name": "Küsnacht ZH, Gartenstrasse"}, "geometry": {"type": "Point", "coordinates": [8.588524499999998, 47.311702499999996]}}, {"type": "Feature", "properties": {"name": "Weihersteig"}, "geometry": {"type": "Point", "coordinates": [8.528783, 47.3979415]}}, {"type": "Feature", "properties": {"name": "Zoo/Forrenweid"}, "geometry": {"type": "Point", "coordinates": [8.578141, 47.380493]}}, {"type": "Feature", "properties": {"name": "Kilchberg ZH, Weinbergstrasse"}, "geometry": {"type": "Point", "coordinates": [8.5431895, 47.332060999999996]}}, {"type": "Feature", "properties": {"name": "Zwinglihaus"}, "geometry": {"type": "Point", "coordinates": [8.51612985714286, 47.371620857142865]}}, {"type": "Feature", "properties": {"name": "Aargauerstrasse"}, "geometry": {"type": "Point", "coordinates": [8.5018885, 47.39215850000001]}}, {"type": "Feature", "properties": {"name": "Elektrowatt"}, "geometry": {"type": "Point", "coordinates": [8.5497865, 47.3584795]}}, {"type": "Feature", "properties": {"name": "Stierenried"}, "geometry": {"type": "Point", "coordinates": [8.5354415, 47.4166175]}}, {"type": "Feature", "properties": {"name": "Verenastrasse"}, "geometry": {"type": "Point", "coordinates": [8.52525, 47.340934000000004]}}, {"type": "Feature", "properties": {"name": "Küsnacht ZH, Goldbacherstrasse"}, "geometry": {"type": "Point", "coordinates": [8.5804035, 47.3293195]}}, {"type": "Feature", "properties": {"name": "Zollikon, Goldhaldenplatz"}, "geometry": {"type": "Point", "coordinates": [8.577559666666668, 47.335029999999996]}}, {"type": "Feature", "properties": {"name": "Vogelsangstrasse"}, "geometry": {"type": "Point", "coordinates": [8.549248500000001, 47.3834825]}}, {"type": "Feature", "properties": {"name": "Rosengartenstrasse"}, "geometry": {"type": "Point", "coordinates": [8.52545425, 47.394313999999994]}}, {"type": "Feature", "properties": {"name": "Fischerweg"}, "geometry": {"type": "Point", "coordinates": [8.5121065, 47.3932465]}}, {"type": "Feature", "properties": {"name": "Rotbuchstrasse"}, "geometry": {"type": "Point", "coordinates": [8.53599325, 47.3911405]}}, {"type": "Feature", "properties": {"name": "Küsnacht ZH, Oberfeld"}, "geometry": {"type": "Point", "coordinates": [8.588639, 47.313352]}}, {"type": "Feature", "properties": {"name": "Itschnach, Tägermoos"}, "geometry": {"type": "Point", "coordinates": [8.593955999999999, 47.325852000000005]}}, {"type": "Feature", "properties": {"name": "Bahnhof Hardbrücke"}, "geometry": {"type": "Point", "coordinates": [8.517818333333333, 47.38592499999999]}}, {"type": "Feature", "properties": {"name": "Küsnacht ZH, Hallenbad"}, "geometry": {"type": "Point", "coordinates": [8.585257666666669, 47.31460833333333]}}, {"type": "Feature", "properties": {"name": "Okenstrasse"}, "geometry": {"type": "Point", "coordinates": [8.534121, 47.38821]}}, {"type": "Feature", "properties": {"name": "Kilchberg ZH, Paradiessteig"}, "geometry": {"type": "Point", "coordinates": [8.543146, 47.329628]}}, {"type": "Feature", "properties": {"name": "Maillartstrasse"}, "geometry": {"type": "Point", "coordinates": [8.531966666666667, 47.41619466666666]}}, {"type": "Feature", "properties": {"name": "Kilchberg ZH, Paradiesstrasse"}, "geometry": {"type": "Point", "coordinates": [8.547212666666665, 47.32862266666667]}}, {"type": "Feature", "properties": {"name": "Bollingerweg"}, "geometry": {"type": "Point", "coordinates": [8.5379825, 47.414214]}}, {"type": "Feature", "properties": {"name": "Hürlimannplatz"}, "geometry": {"type": "Point", "coordinates": [8.526499999999999, 47.365249500000004]}}, {"type": "Feature", "properties": {"name": "Wonnebergstrasse"}, "geometry": {"type": "Point", "coordinates": [8.566485, 47.351855]}}, {"type": "Feature", "properties": {"name": "Voltastrasse"}, "geometry": {"type": "Point", "coordinates": [8.5540455, 47.376982]}}, {"type": "Feature", "properties": {"name": "Gockhausen, Ursprungstrasse"}, "geometry": {"type": "Point", "coordinates": [8.600048999999999, 47.384818]}}, {"type": "Feature", "properties": {"name": "Rudolf-Brun-Brücke"}, "geometry": {"type": "Point", "coordinates": [8.542169333333334, 47.374103999999996]}}, {"type": "Feature", "properties": {"name": "Flurstrasse"}, "geometry": {"type": "Point", "coordinates": [8.4918226, 47.3813128]}}, {"type": "Feature", "properties": {"name": "Grimselstrasse"}, "geometry": {"type": "Point", "coordinates": [8.489327000000001, 47.387094142857144]}}, {"type": "Feature", "properties": {"name": "Flühgasse"}, "geometry": {"type": "Point", "coordinates": [8.56937, 47.350562499999995]}}, {"type": "Feature", "properties": {"name": "Werdhölzli"}, "geometry": {"type": "Point", "coordinates": [8.4819018, 47.3977314]}}, {"type": "Feature", "properties": {"name": "Köschenrüti"}, "geometry": {"type": "Point", "coordinates": [8.5370825, 47.429041999999995]}}, {"type": "Feature", "properties": {"name": "Rathaus"}, "geometry": {"type": "Point", "coordinates": [8.5428065, 47.3720395]}}, {"type": "Feature", "properties": {"name": "Albisrank"}, "geometry": {"type": "Point", "coordinates": [8.49365675, 47.37881775]}}, {"type": "Feature", "properties": {"name": "Im Gut"}, "geometry": {"type": "Point", "coordinates": [8.5032025, 47.373711]}}, {"type": "Feature", "properties": {"name": "Rebbergsteig"}, "geometry": {"type": "Point", "coordinates": [8.514743, 47.397031999999996]}}, {"type": "Feature", "properties": {"name": "Englischviertelstrasse"}, "geometry": {"type": "Point", "coordinates": [8.557553, 47.366478]}}, {"type": "Feature", "properties": {"name": "Itschnach, Rebweg"}, "geometry": {"type": "Point", "coordinates": [8.598073, 47.326571]}}, {"type": "Feature", "properties": {"name": "Waffenplatzstrasse"}, "geometry": {"type": "Point", "coordinates": [8.526003666666666, 47.361799999999995]}}, {"type": "Feature", "properties": {"name": "Kilchberg ZH, Auf Brunnen"}, "geometry": {"type": "Point", "coordinates": [8.545818, 47.31862525]}}, {"type": "Feature", "properties": {"name": "Räffelstrasse"}, "geometry": {"type": "Point", "coordinates": [8.514766666666667, 47.36277233333334]}}, {"type": "Feature", "properties": {"name": "Waidbadstrasse"}, "geometry": {"type": "Point", "coordinates": [8.5135235, 47.398977]}}, {"type": "Feature", "properties": {"name": "Küsnacht ZH, Ränkestrasse"}, "geometry": {"type": "Point", "coordinates": [8.595616666666666, 47.31446966666667]}}, {"type": "Feature", "properties": {"name": "Röntgenstrasse"}, "geometry": {"type": "Point", "coordinates": [8.5294075, 47.382129]}}, {"type": "Feature", "properties": {"name": "Bahnhof Tiefenbrunnen"}, "geometry": {"type": "Point", "coordinates": [8.561295846153845, 47.349974384615386]}}, {"type": "Feature", "properties": {"name": "Bahnhof Wipkingen"}, "geometry": {"type": "Point", "coordinates": [8.529048, 47.392472999999995]}}, {"type": "Feature", "properties": {"name": "Zollikon, Gemeindehaus"}, "geometry": {"type": "Point", "coordinates": [8.576191, 47.340831666666666]}}, {"type": "Feature", "properties": {"name": "Zürichbergstrasse"}, "geometry": {"type": "Point", "coordinates": [8.5642715, 47.378994500000005]}}, {"type": "Feature", "properties": {"name": "Hardhof"}, "geometry": {"type": "Point", "coordinates": [8.497487750000001, 47.39636874999999]}}, {"type": "Feature", "properties": {"name": "Zollikon, Rebwiesstrasse"}, "geometry": {"type": "Point", "coordinates": [8.588901499999999, 47.3457595]}}, {"type": "Feature", "properties": {"name": "Küsnacht ZH, Reform. Kirche"}, "geometry": {"type": "Point", "coordinates": [8.583935, 47.31661]}}, {"type": "Feature", "properties": {"name": "Fällanden, Jugendherberge"}, "geometry": {"type": "Point", "coordinates": [8.6536975, 47.3596005]}}, {"type": "Feature", "properties": {"name": "Maur, Aschbach"}, "geometry": {"type": "Point", "coordinates": [8.6608275, 47.3518525]}}, {"type": "Feature", "properties": {"name": "Platte"}, "geometry": {"type": "Point", "coordinates": [8.552550199999999, 47.3750236]}}, {"type": "Feature", "properties": {"name": "Kappenbühlweg"}, "geometry": {"type": "Point", "coordinates": [8.4982685, 47.4029725]}}, {"type": "Feature", "properties": {"name": "Schweighof"}, "geometry": {"type": "Point", "coordinates": [8.502647200000002, 47.3647108]}}, {"type": "Feature", "properties": {"name": "Schwert"}, "geometry": {"type": "Point", "coordinates": [8.505064, 47.39942275000001]}}, {"type": "Feature", "properties": {"name": "Im Hagacker"}, "geometry": {"type": "Point", "coordinates": [8.507414, 47.359567999999996]}}, {"type": "Feature", "properties": {"name": "Wieslergasse"}, "geometry": {"type": "Point", "coordinates": [8.495969, 47.40413566666666]}}, {"type": "Feature", "properties": {"name": "Albisgütli"}, "geometry": {"type": "Point", "coordinates": [8.507963166666666, 47.3522955]}}, {"type": "Feature", "properties": {"name": "Albisrieden"}, "geometry": {"type": "Point", "coordinates": [8.485031833333332, 47.374581166666665]}}, {"type": "Feature", "properties": {"name": "Giblenstrasse"}, "geometry": {"type": "Point", "coordinates": [8.4861095, 47.410549]}}, {"type": "Feature", "properties": {"name": "Heerenwiesen"}, "geometry": {"type": "Point", "coordinates": [8.576499624999999, 47.40482625]}}, {"type": "Feature", "properties": {"name": "Landiwiese"}, "geometry": {"type": "Point", "coordinates": [8.53428, 47.350500499999995]}}, {"type": "Feature", "properties": {"name": "Rentenanstalt"}, "geometry": {"type": "Point", "coordinates": [8.534616875, 47.363282375]}}, {"type": "Feature", "properties": {"name": "Hirzenbach"}, "geometry": {"type": "Point", "coordinates": [8.5903845, 47.40310525]}}, {"type": "Feature", "properties": {"name": "Auzelg Ost"}, "geometry": {"type": "Point", "coordinates": [8.571943, 47.413409]}}, {"type": "Feature", "properties": {"name": "Letzipark"}, "geometry": {"type": "Point", "coordinates": [8.499804999999999, 47.387635]}}, {"type": "Feature", "properties": {"name": "Bachmattstrasse"}, "geometry": {"type": "Point", "coordinates": [8.482930999999999, 47.389024250000006]}}, {"type": "Feature", "properties": {"name": "Rütihof"}, "geometry": {"type": "Point", "coordinates": [8.477253999999999, 47.413732]}}, {"type": "Feature", "properties": {"name": "Schlieren, Rütistrasse"}, "geometry": {"type": "Point", "coordinates": [8.4515145, 47.40088575]}}, {"type": "Feature", "properties": {"name": "Friedhof Hönggerberg"}, "geometry": {"type": "Point", "coordinates": [8.494338, 47.40854900000001]}}, {"type": "Feature", "properties": {"name": "SBB-Werkstätte"}, "geometry": {"type": "Point", "coordinates": [8.502405, 47.3868375]}}, {"type": "Feature", "properties": {"name": "Friedhof Schwandenholz"}, "geometry": {"type": "Point", "coordinates": [8.5376655, 47.421341]}}, {"type": "Feature", "properties": {"name": "Friedhof Sihlfeld"}, "geometry": {"type": "Point", "coordinates": [8.5109875, 47.37579325]}}, {"type": "Feature", "properties": {"name": "Im Hüsli"}, "geometry": {"type": "Point", "coordinates": [8.5127605, 47.3282645]}}, {"type": "Feature", "properties": {"name": "Sackzelg"}, "geometry": {"type": "Point", "coordinates": [8.495438000000002, 47.37441266666667]}}, {"type": "Feature", "properties": {"name": "Im Klösterli"}, "geometry": {"type": "Point", "coordinates": [8.576689, 47.3840295]}}, {"type": "Feature", "properties": {"name": "Singlistrasse"}, "geometry": {"type": "Point", "coordinates": [8.4926675, 47.405488000000005]}}, {"type": "Feature", "properties": {"name": "Im Walder"}, "geometry": {"type": "Point", "coordinates": [8.574273, 47.348036]}}, {"type": "Feature", "properties": {"name": "Zollikon, Allmend"}, "geometry": {"type": "Point", "coordinates": [8.583097500000001, 47.3429705]}}, {"type": "Feature", "properties": {"name": "Im Wingert"}, "geometry": {"type": "Point", "coordinates": [8.508914, 47.401304499999995]}}, {"type": "Feature", "properties": {"name": "Küsnacht ZH, Allmend"}, "geometry": {"type": "Point", "coordinates": [8.597197999999999, 47.315847999999995]}}, {"type": "Feature", "properties": {"name": "Hegianwandweg"}, "geometry": {"type": "Point", "coordinates": [8.509997, 47.356661]}}, {"type": "Feature", "properties": {"name": "Am Börtli"}, "geometry": {"type": "Point", "coordinates": [8.507249999999999, 47.399597]}}, {"type": "Feature", "properties": {"name": "Appenzellerstrasse"}, "geometry": {"type": "Point", "coordinates": [8.5095275, 47.39887]}}, {"type": "Feature", "properties": {"name": "Juchhof"}, "geometry": {"type": "Point", "coordinates": [8.473172, 47.398347]}}, {"type": "Feature", "properties": {"name": "Schulhaus Altweg"}, "geometry": {"type": "Point", "coordinates": [8.494204500000002, 47.372692]}}, {"type": "Feature", "properties": {"name": "Hohenklingensteig"}, "geometry": {"type": "Point", "coordinates": [8.490643, 47.401219999999995]}}, {"type": "Feature", "properties": {"name": "Schönauring"}, "geometry": {"type": "Point", "coordinates": [8.536857333333332, 47.42563633333333]}}, {"type": "Feature", "properties": {"name": "Kirche Fluntern"}, "geometry": {"type": "Point", "coordinates": [8.55969457142857, 47.376739500000006]}}, {"type": "Feature", "properties": {"name": "Fällanden, Zil"}, "geometry": {"type": "Point", "coordinates": [8.635909000000002, 47.3724615]}}, {"type": "Feature", "properties": {"name": "Himmeri"}, "geometry": {"type": "Point", "coordinates": [8.5386055, 47.41999199999999]}}, {"type": "Feature", "properties": {"name": "Küsnacht ZH, Schübel"}, "geometry": {"type": "Point", "coordinates": [8.589822999999999, 47.321934999999996]}}, {"type": "Feature", "properties": {"name": "Holzerhurd"}, "geometry": {"type": "Point", "coordinates": [8.496866, 47.4232425]}}, {"type": "Feature", "properties": {"name": "Kilchberg ZH, Sanatorium"}, "geometry": {"type": "Point", "coordinates": [8.5444935, 47.327002500000006]}}, {"type": "Feature", "properties": {"name": "In der Ey"}, "geometry": {"type": "Point", "coordinates": [8.491524, 47.369561250000004]}}, {"type": "Feature", "properties": {"name": "Schlieren, Industrie Gaswerk"}, "geometry": {"type": "Point", "coordinates": [8.4626385, 47.4010405]}}, {"type": "Feature", "properties": {"name": "Alte Trotte"}, "geometry": {"type": "Point", "coordinates": [8.507608000000001, 47.3976245]}}, {"type": "Feature", "properties": {"name": "Helmhaus"}, "geometry": {"type": "Point", "coordinates": [8.543887250000001, 47.369087750000006]}}, {"type": "Feature", "properties": {"name": "Aesch bei Maur, Im Brünneli"}, "geometry": {"type": "Point", "coordinates": [8.6546515, 47.330333499999995]}}, {"type": "Feature", "properties": {"name": "Rüschlikon, Schlossstrasse"}, "geometry": {"type": "Point", "coordinates": [8.554384999999998, 47.31367933333333]}}, {"type": "Feature", "properties": {"name": "Gutstrasse"}, "geometry": {"type": "Point", "coordinates": [8.5069604, 47.37155539999999]}}, {"type": "Feature", "properties": {"name": "Kilchberg ZH, Hornhaldenstr."}, "geometry": {"type": "Point", "coordinates": [8.542027000000001, 47.331834]}}, {"type": "Feature", "properties": {"name": "Zumikon, Gössikon"}, "geometry": {"type": "Point", "coordinates": [8.614464, 47.3322205]}}, {"type": "Feature", "properties": {"name": "Scheuchzerstrasse"}, "geometry": {"type": "Point", "coordinates": [8.543968, 47.3878325]}}, {"type": "Feature", "properties": {"name": "Langgrütstrasse"}, "geometry": {"type": "Point", "coordinates": [8.5002445, 47.373801]}}, {"type": "Feature", "properties": {"name": "Rüschlikon, Langhaldenstrasse"}, "geometry": {"type": "Point", "coordinates": [8.551359, 47.30600233333334]}}, {"type": "Feature", "properties": {"name": "Küsnacht ZH, Schiedhaldensteig"}, "geometry": {"type": "Point", "coordinates": [8.5865935, 47.3215535]}}, {"type": "Feature", "properties": {"name": "Küsnacht ZH, Schiedhaldenstr."}, "geometry": {"type": "Point", "coordinates": [8.582848, 47.32315375]}}, {"type": "Feature", "properties": {"name": "Zollikon, Bahnübergang"}, "geometry": {"type": "Point", "coordinates": [8.565867333333333, 47.34591500000001]}}, {"type": "Feature", "properties": {"name": "Altenhofstrasse"}, "geometry": {"type": "Point", "coordinates": [8.561466500000002, 47.3552275]}}, {"type": "Feature", "properties": {"name": "Herdernstrasse"}, "geometry": {"type": "Point", "coordinates": [8.508174333333331, 47.38491199999999]}}, {"type": "Feature", "properties": {"name": "Bleulerstrasse"}, "geometry": {"type": "Point", "coordinates": [8.5720745, 47.347046]}}, {"type": "Feature", "properties": {"name": "Hottingerplatz"}, "geometry": {"type": "Point", "coordinates": [8.55507, 47.369338166666665]}}, {"type": "Feature", "properties": {"name": "Hubertus"}, "geometry": {"type": "Point", "coordinates": [8.499053, 47.377306444444436]}}, {"type": "Feature", "properties": {"name": "Zollikon, Schützenstrasse"}, "geometry": {"type": "Point", "coordinates": [8.586219, 47.345034999999996]}}, {"type": "Feature", "properties": {"name": "Binz"}, "geometry": {"type": "Point", "coordinates": [8.518635399999999, 47.3628634]}}, {"type": "Feature", "properties": {"name": "Schiffbau"}, "geometry": {"type": "Point", "coordinates": [8.519637200000002, 47.387730999999995]}}, {"type": "Feature", "properties": {"name": "Fällanden, Wigarten"}, "geometry": {"type": "Point", "coordinates": [8.641960000000001, 47.3709635]}}, {"type": "Feature", "properties": {"name": "Unterengstringen, Sennenbüel"}, "geometry": {"type": "Point", "coordinates": [8.448779, 47.413139]}}, {"type": "Feature", "properties": {"name": "Bergdietikon, Garage 2 LIBU"}, "geometry": {"type": "Point", "coordinates": [8.394025, 47.390245]}}, {"type": "Feature", "properties": {"name": "Dietikon, Heimstrasse"}, "geometry": {"type": "Point", "coordinates": [8.406118, 47.40846450000001]}}, {"type": "Feature", "properties": {"name": "Binz bei Maur, Bautacher"}, "geometry": {"type": "Point", "coordinates": [8.630039, 47.3583495]}}, {"type": "Feature", "properties": {"name": "Benglen, Langwis"}, "geometry": {"type": "Point", "coordinates": [8.630129, 47.362082]}}, {"type": "Feature", "properties": {"name": "Thalwil, Sonnenberg"}, "geometry": {"type": "Point", "coordinates": [8.55621, 47.293898999999996]}},